[{"city": "Amherst", "review_count": 2, "name": "Atlantis", "neighborhoods": [], "url": "http://www.yelp.com/biz/atlantis-amherst", "type": "business", "business_id": "RU7bd3h2f6pBlf8BfAyxGQ", "full_address": "41 Boltwood Walk\nAmherst, MA 01002", "latitude": 42.376184, "state": "MA", "longitude": -72.5188285, "stars": 5.0, "schools": ["University of Massachusetts - Amherst"], "open": false, "categories": [], "photo_url": "http://s3-media1.ak.yelpcdn.com/assets/2/www/img/924a6444ca6c/gfx/blank_biz_medium.gif"}, {"city": "Amherst", "review_count": 4, "name": "Sei Bella Salon", "neighborhoods": [], "url": "http://www.yelp.com/biz/sei-bella-salon-amherst", "type": "business", "business_id": "CxYMVhOnWQuYaVv7wTAiAg", "full_address": "59B Boltwood Walk\nAmherst, MA 01002", "latitude": 42.376581, "state": "MA", "longitude": -72.5187519, "stars": 5.0, "schools": ["University of Massachusetts - Amherst"], "open": true, "categories": ["Hair Salons", "Nail Salons", "Hair Removal", "Beauty and Spas"], "photo_url": "http://s3-media3.ak.yelpcdn.com/bphoto/RE8P7C6UiiNdIeLxulktAw/ms.jpg"}, {"city": "Hadley", "review_count": 30, "name": "Banh Mi Saigon", "neighborhoods": [], "url": "http://www.yelp.com/biz/banh-mi-saigon-hadley", "type": "business", "business_id": "dPIsxsqE22IZ-R43NalT0g", "full_address": "206 Russell St\nHadley, MA 01035", "latitude": 42.3445618, "state": "MA", "longitude": -72.5778732, "stars": 4.5, "schools": ["University of Massachusetts - Amherst"], "open": true, "categories": ["Restaurants", "Vietnamese"], "photo_url": "http://s3-media3.ak.yelpcdn.com/bphoto/E1T6qJUEwUghIJeETJf_iQ/ms.jpg"}, {"city": "Amherst", "review_count": 2, "name": "Hampshire Community Yellow Bike Program", "neighborhoods": [], "url": "http://www.yelp.com/biz/hampshire-community-yellow-bike-program-amherst", "type": "business", "business_id": "N-urZV7AHwkI2oavPqJDtQ", "full_address": "Hampshire College\n893 West St\nAmherst, MA 01004", "latitude": 42.3245395, "state": "MA", "longitude": -72.5336856, "stars": 3.5, "schools": ["University of Massachusetts - Amherst"], "open": true, "categories": ["Local Services", "Active Life", "Community Service/Non-Profit", "Bike Rentals"], "photo_url": "http://s3-media1.ak.yelpcdn.com/assets/2/www/img/924a6444ca6c/gfx/blank_biz_medium.gif"}, {"city": "Amherst", "review_count": 18, "name": "House of Teriyaki", "neighborhoods": [], "url": "http://www.yelp.com/biz/house-of-teriyaki-amherst", "type": "business", "business_id": "gCaIfAJ93W6fvmKuasF6Xw", "full_address": "1177 N Pleasant St\nAmherst, MA 01002", "latitude": 42.4095138, "state": "MA", "longitude": -72.530616, "stars": 3.5, "schools": ["University of Massachusetts - Amherst"], "open": true, "categories": ["Korean", "Japanese", "Restaurants"], "photo_url": "http://s3-media4.ak.yelpcdn.com/bphoto/m4HhDpgtxKPifCndkxR7Ag/ms.jpg"}, {"city": "Amherst", "review_count": 2, "name": "USPS Post Office", "neighborhoods": [], "url": "http://www.yelp.com/biz/usps-post-office-amherst", "type": "business", "business_id": "V92ePy2VVqDfy1RSsjKW6w", "full_address": "145 University Dr\nAmherst, MA 01002", "latitude": 42.3693641, "state": "MA", "longitude": -72.5339135, "stars": 1.0, "schools": ["University of Massachusetts - Amherst"], "open": true, "categories": ["Post Offices", "Public Services & Government"], "photo_url": "http://s3-media1.ak.yelpcdn.com/assets/2/www/img/924a6444ca6c/gfx/blank_biz_medium.gif"}, {"city": "Amherst", "review_count": 17, "name": "Wheatberry Bakery & Cafe", "neighborhoods": [], "url": "http://www.yelp.com/biz/wheatberry-bakery-and-cafe-amherst", "type": "business", "business_id": "S_xSSU0IbNGFwOUTHFNtpA", "full_address": "321 Main St\nAmherst, MA 01002", "latitude": 42.3757659, "state": "MA", "longitude": -72.5134193, "stars": 3.0, "schools": ["University of Massachusetts - Amherst"], "open": true, "categories": ["Food", "Bakeries", "Coffee & Tea", "Bagels"], "photo_url": "http://s3-media2.ak.yelpcdn.com/bphoto/2DgYXMLPH4rG5JlOxtWchA/ms.jpg"}, {"city": "Amherst", "review_count": 3, "name": "Cumberland Farms Inc", "neighborhoods": [], "url": "http://www.yelp.com/biz/cumberland-farms-inc-amherst", "type": "business", "business_id": "qB8D8KlvcWfwoREPIICO1w", "full_address": "360 College St\nAmherst, MA 01002", "latitude": 42.373108, "state": "MA", "longitude": -72.505525, "stars": 4.5, "schools": ["University of Massachusetts - Amherst"], "open": true, "categories": ["Food", "Convenience Stores"], "photo_url": "http://s3-media4.ak.yelpcdn.com/bphoto/S0KsKWB13gAOGOel1mvxOA/ms.jpg"}, {"city": "Amherst", "review_count": 3, "name": "Hampshire Bicycle Exchange", "neighborhoods": [], "url": "http://www.yelp.com/biz/hampshire-bicycle-exchange-amherst", "type": "business", "business_id": "xcJa7SUk9rSQbxkErstfew", "full_address": "65 University Dr\nSte 5\nAmherst, MA 01002", "latitude": 42.37158, "state": "MA", "longitude": -72.533994, "stars": 3.0, "schools": ["University of Massachusetts - Amherst"], "open": true, "categories": ["Active Life", "Bike Rentals"], "photo_url": "http://s3-media1.ak.yelpcdn.com/assets/2/www/img/924a6444ca6c/gfx/blank_biz_medium.gif"}, {"city": "Amherst", "review_count": 17, "name": "GoBerry", "neighborhoods": [], "url": "http://www.yelp.com/biz/goberry-amherst", "type": "business", "business_id": "JdG5e8zfYTu6_P29lQ-Wig", "full_address": "28 Amity St\n1-E\nAmherst, MA 01002", "latitude": 42.375703, "state": "MA", "longitude": -72.520517, "stars": 4.0, "schools": ["University of Massachusetts - Amherst"], "open": true, "categories": ["Food", "Ice Cream & Frozen Yogurt"], "photo_url": "http://s3-media1.ak.yelpcdn.com/bphoto/hXOAHxAN10mx_XPtWonATg/ms.jpg"}, {"city": "Amherst", "review_count": 3, "name": "Ren's Mobil Service", "neighborhoods": [], "url": "http://www.yelp.com/biz/rens-mobil-service-amherst", "type": "business", "business_id": "-KedUrm_YGt2s4Q9p_Q6Mg", "full_address": "161 N Pleasant St\nAmherst, MA 01002", "latitude": 42.3780657, "state": "MA", "longitude": -72.5198894, "stars": 4.5, "schools": ["University of Massachusetts - Amherst"], "open": true, "categories": ["Auto Repair", "Automotive", "Gas & Service Stations"], "photo_url": "http://s3-media1.ak.yelpcdn.com/assets/2/www/img/924a6444ca6c/gfx/blank_biz_medium.gif"}, {"city": "Hadley", "review_count": 4, "name": "Chili's Grill & Bar", "neighborhoods": [], "url": "http://www.yelp.com/biz/chilis-grill-and-bar-hadley", "type": "business", "business_id": "qXh_8dyoLpniX1pv5jquOA", "full_address": "426 Russell St\nHadley, MA 01035", "latitude": 42.3634568, "state": "MA", "longitude": -72.5397411, "stars": 3.5, "schools": ["University of Massachusetts - Amherst"], "open": true, "categories": ["American (Traditional)", "Restaurants"], "photo_url": "http://s3-media1.ak.yelpcdn.com/assets/2/www/img/924a6444ca6c/gfx/blank_biz_medium.gif"}, {"city": "Amherst", "review_count": 2, "name": "Amherst Fish Market", "neighborhoods": [], "url": "http://www.yelp.com/biz/amherst-fish-market-amherst", "type": "business", "business_id": "7oC0qcOg-XSt4Xo1_u-9XA", "full_address": "RR 116\nAmherst, MA 01002", "latitude": 42.384917, "state": "MA", "longitude": -72.5310401, "stars": 3.5, "schools": ["University of Massachusetts - Amherst"], "open": true, "categories": ["Food", "Specialty Food", "Korean", "Seafood Markets", "Restaurants"], "photo_url": "http://s3-media1.ak.yelpcdn.com/assets/2/www/img/924a6444ca6c/gfx/blank_biz_medium.gif"}, {"city": "Hadley", "review_count": 4, "name": "Mastercuts", "neighborhoods": [], "url": "http://www.yelp.com/biz/mastercuts-hadley", "type": "business", "business_id": "rqn5hFLMJVHaQvfu2Czl5A", "full_address": "Hampshire Mall\nHadley, MA 01035", "latitude": 42.355961, "state": "MA", "longitude": -72.55014, "stars": 1.0, "schools": ["University of Massachusetts - Amherst"], "open": true, "categories": [], "photo_url": "http://s3-media1.ak.yelpcdn.com/assets/2/www/img/924a6444ca6c/gfx/blank_biz_medium.gif"}, {"city": "Amherst", "review_count": 177, "name": "Antonio's", "neighborhoods": [], "url": "http://www.yelp.com/biz/antonios-amherst", "type": "business", "business_id": "d1PfS_bozULtBY4PjF3D-w", "full_address": "31 N Pleasant St\nAmherst, MA 01002", "latitude": 42.376188, "state": "MA", "longitude": -72.519611, "stars": 4.5, "schools": ["University of Massachusetts - Amherst"], "open": true, "categories": ["Pizza", "Restaurants"], "photo_url": "http://s3-media1.ak.yelpcdn.com/bphoto/RBoQqRV_xDBvbPN0mgq_WQ/ms.jpg"}, {"city": "Amherst", "review_count": 11, "name": "Lumber Yard", "neighborhoods": [], "url": "http://www.yelp.com/biz/lumber-yard-amherst", "type": "business", "business_id": "-DpB583IrJuH1ehHu-U8sw", "full_address": "383 Main St\nAmherst, MA 01002", "latitude": 42.375872, "state": "MA", "longitude": -72.512491, "stars": 4.0, "schools": ["University of Massachusetts - Amherst"], "open": true, "categories": ["American (Traditional)", "Restaurants"], "photo_url": "http://s3-media1.ak.yelpcdn.com/assets/2/www/img/924a6444ca6c/gfx/blank_biz_medium.gif"}, {"city": "Amherst", "review_count": 3, "name": "Big Y World Class Market", "neighborhoods": [], "url": "http://www.yelp.com/biz/big-y-world-class-market-amherst-2", "type": "business", "business_id": "Sn6Urb4rcxLD1nFZibNdfQ", "full_address": "175 University Dr\nAmherst, MA 01002", "latitude": 42.367729, "state": "MA", "longitude": -72.53444, "stars": 2.5, "schools": ["University of Massachusetts - Amherst"], "open": true, "categories": ["Food", "Grocery", "Pizza", "Seafood", "Restaurants"], "photo_url": "http://s3-media2.ak.yelpcdn.com/bphoto/F3NmwexeIBj2QLvmHO1hHQ/ms.jpg"}, {"city": "Amherst", "review_count": 9, "name": "Bistro 63 At the Monkey Bar & Grill", "neighborhoods": [], "url": "http://www.yelp.com/biz/bistro-63-at-the-monkey-bar-and-grill-amherst", "type": "business", "business_id": "0ggseJ7x1t-I-I8GA6knjw", "full_address": "63 N Pleasant St\nAmherst, MA 01002", "latitude": 42.376678, "state": "MA", "longitude": -72.519529, "stars": 4.0, "schools": ["University of Massachusetts - Amherst"], "open": true, "categories": ["American (New)", "Restaurants"], "photo_url": "http://s3-media2.ak.yelpcdn.com/bphoto/-tXb31NJojVtz3oNHuqOoA/ms.jpg"}, {"city": "Amherst", "review_count": 12, "name": "The Harp", "neighborhoods": [], "url": "http://www.yelp.com/biz/the-harp-amherst", "type": "business", "business_id": "T-Ouo3opXRiUEyGoBT0aoA", "full_address": "163 Sunderland Rd\nAmherst, MA 01002", "latitude": 42.415611, "state": "MA", "longitude": -72.532801, "stars": 3.5, "schools": ["University of Massachusetts - Amherst"], "open": true, "categories": ["Pubs", "Bars", "Nightlife"], "photo_url": "http://s3-media1.ak.yelpcdn.com/assets/2/www/img/924a6444ca6c/gfx/blank_biz_medium.gif"}, {"city": "Amherst", "review_count": 5, "name": "Hair by Harlow", "neighborhoods": [], "url": "http://www.yelp.com/biz/hair-by-harlow-amherst", "type": "business", "business_id": "OdJvpUlDXp3K-0pI_uNkoA", "full_address": "220 N Pleasant St\nAmherst, MA 01002", "latitude": 42.378823, "state": "MA", "longitude": -72.520549, "stars": 5.0, "schools": ["University of Massachusetts - Amherst"], "open": true, "categories": ["Hair Salons", "Beauty and Spas"], "photo_url": "http://s3-media1.ak.yelpcdn.com/assets/2/www/img/924a6444ca6c/gfx/blank_biz_medium.gif"}, {"city": "Amherst", "review_count": 4, "name": "Cheryl Nina Salon and Day Spa", "neighborhoods": [], "url": "http://www.yelp.com/biz/cheryl-nina-salon-and-day-spa-amherst", "type": "business", "business_id": "HepbklWPmInGoNOThnpc9w", "full_address": "308 College St\nAmherst, MA 01002", "latitude": 42.373188, "state": "MA", "longitude": -72.504499, "stars": 4.0, "schools": ["University of Massachusetts - Amherst"], "open": true, "categories": ["Hair Salons", "Day Spas", "Beauty and Spas"], "photo_url": "http://s3-media1.ak.yelpcdn.com/assets/2/www/img/924a6444ca6c/gfx/blank_biz_medium.gif"}, {"city": "Amherst", "review_count": 21, "name": "Amherst Creperie", "neighborhoods": [], "url": "http://www.yelp.com/biz/amherst-creperie-amherst", "type": "business", "business_id": "Rii78kjj-488O-ehx3f6Jw", "full_address": "19 N. Pleasant St.\nAmherst, MA 01002", "latitude": 42.376, "state": "MA", "longitude": -72.5194999, "stars": 3.0, "schools": ["University of Massachusetts - Amherst"], "open": false, "categories": ["Food", "Desserts", "Ice Cream & Frozen Yogurt"], "photo_url": "http://s3-media1.ak.yelpcdn.com/bphoto/TnCAl-qn6Yh07sV-hckNow/ms.jpg"}, {"city": "Hadley", "review_count": 8, "name": "North Hadley Sugar Shack", "neighborhoods": [], "url": "http://www.yelp.com/biz/north-hadley-sugar-shack-hadley", "type": "business", "business_id": "QtXP6bCfwJEvLoHjJb7mSg", "full_address": "181 River Dr\nHadley, MA 01035", "latitude": 42.3797104, "state": "MA", "longitude": -72.58528, "stars": 5.0, "schools": ["University of Massachusetts - Amherst"], "open": true, "categories": [], "photo_url": "http://s3-media2.ak.yelpcdn.com/bphoto/7wDQ2U8eds67FF_gLBR4Yw/ms.jpg"}, {"city": "Amherst", "review_count": 2, "name": "Lincoln Real Estate", "neighborhoods": [], "url": "http://www.yelp.com/biz/lincoln-real-estate-amherst", "type": "business", "business_id": "JkAmtVX7OhCY2b9Fu6Hskw", "full_address": "25 N Pleasant St\nAmherst, MA 01002", "latitude": 42.3771563, "state": "MA", "longitude": -72.5198841, "stars": 3.0, "schools": ["University of Massachusetts - Amherst"], "open": true, "categories": ["Real Estate Services", "Home Services", "Real Estate", "Apartments"], "photo_url": "http://s3-media1.ak.yelpcdn.com/bphoto/mHgu6m7Fb4pOpPZBteK8MQ/ms.jpg"}, {"city": "Hadley", "review_count": 4, "name": "Sully's Restaurant", "neighborhoods": [], "url": "http://www.yelp.com/biz/sullys-restaurant-hadley-2", "type": "business", "business_id": "rKMPry_7sf-OlRkI8T8NRw", "full_address": "235 Russell St\nHadley, MA 01035", "latitude": 42.3469546, "state": "MA", "longitude": -72.5727623, "stars": 3.5, "schools": ["University of Massachusetts - Amherst"], "open": true, "categories": ["Breakfast & Brunch", "Restaurants"], "photo_url": "http://s3-media4.ak.yelpcdn.com/bphoto/cxOqaI74jLV0WB4kewLP0w/ms.jpg"}, {"city": "Amherst", "review_count": 5, "name": "Newbury Comics", "neighborhoods": [], "url": "http://www.yelp.com/biz/newbury-comics-amherst", "type": "business", "business_id": "ggjWK5GsZQyUmGNoZaqMFQ", "full_address": "50 Main St\nAmherst, MA 01002", "latitude": 42.3758663, "state": "MA", "longitude": -72.5191493, "stars": 3.0, "schools": ["University of Massachusetts - Amherst"], "open": false, "categories": ["Books, Mags, Music and Video", "Shopping", "Comic Books"], "photo_url": "http://s3-media2.ak.yelpcdn.com/bphoto/mi4p2aExXfzV9P10Wkbw3Q/ms.jpg"}, {"city": "Amherst", "review_count": 2, "name": "Amherst Veterinary Clinic", "neighborhoods": [], "url": "http://www.yelp.com/biz/amherst-veterinary-clinic-amherst", "type": "business", "business_id": "_7CLb8wr3ZqJsD8w3nQsOw", "full_address": "300 N Pleasant St\nAmherst, MA 01002", "latitude": 42.380928, "state": "MA", "longitude": -72.521176, "stars": 5.0, "schools": ["University of Massachusetts - Amherst"], "open": true, "categories": ["Veterinarians", "Pets"], "photo_url": "http://s3-media1.ak.yelpcdn.com/assets/2/www/img/924a6444ca6c/gfx/blank_biz_medium.gif"}, {"city": "Amherst", "review_count": 2, "name": "Minuteman Dry Cleaners", "neighborhoods": [], "url": "http://www.yelp.com/biz/minuteman-dry-cleaners-amherst", "type": "business", "business_id": "KW5Cp3UOPy0KIK22lWRTxg", "full_address": "5 Pray St\nAmherst, MA 01002", "latitude": 42.3803754, "state": "MA", "longitude": -72.5178217, "stars": 3.0, "schools": ["University of Massachusetts - Amherst"], "open": true, "categories": ["Local Services", "Dry Cleaning & Laundry"], "photo_url": "http://s3-media1.ak.yelpcdn.com/assets/2/www/img/924a6444ca6c/gfx/blank_biz_medium.gif"}, {"city": "Hampshire", "review_count": 2, "name": "Bank of America", "neighborhoods": [], "url": "http://www.yelp.com/biz/bank-of-america-hampshire", "type": "business", "business_id": "_oHAQK401Vs7ynH4S2P16Q", "full_address": "390 College St\nHampshire, MA 01002", "latitude": 42.3729739, "state": "MA", "longitude": -72.5045857, "stars": 3.5, "schools": ["University of Massachusetts - Amherst"], "open": true, "categories": ["Banks & Credit Unions", "Financial Services"], "photo_url": "http://s3-media1.ak.yelpcdn.com/assets/2/www/img/924a6444ca6c/gfx/blank_biz_medium.gif"}, {"city": "Amherst", "review_count": 35, "name": "Panda East Restaurant", "neighborhoods": [], "url": "http://www.yelp.com/biz/panda-east-restaurant-amherst", "type": "business", "business_id": "ZiDnZGOCsr9xBGEL9ihzjg", "full_address": "103 N Pleasant St\nAmherst, MA 01002", "latitude": 42.37722, "state": "MA", "longitude": -72.519143, "stars": 3.5, "schools": ["University of Massachusetts - Amherst"], "open": true, "categories": ["Japanese", "Chinese", "Restaurants"], "photo_url": "http://s3-media4.ak.yelpcdn.com/bphoto/ErhshXT2n_JRWuQiS8bAyQ/ms.jpg"}, {"city": "Hadley", "review_count": 2, "name": "Golden Nozzle Self Serve Car Wash", "neighborhoods": [], "url": "http://www.yelp.com/biz/golden-nozzle-self-serve-car-wash-hadley", "type": "business", "business_id": "043WqIgVYVRdUItQ4wuKPw", "full_address": "456 Russell St\nHadley, MA 01035", "latitude": 42.36489, "state": "MA", "longitude": -72.5368564, "stars": 3.5, "schools": ["University of Massachusetts - Amherst"], "open": true, "categories": ["Automotive"], "photo_url": "http://s3-media1.ak.yelpcdn.com/assets/2/www/img/924a6444ca6c/gfx/blank_biz_medium.gif"}, {"city": "Hadley", "review_count": 8, "name": "Hillside Pizza", "neighborhoods": [], "url": "http://www.yelp.com/biz/hillside-pizza-hadley", "type": "business", "business_id": "39C414-SwTpyes-9lbqkLg", "full_address": "173 Russell St\nHadley, MA 01035", "latitude": 42.342257, "state": "MA", "longitude": -72.584056, "stars": 4.5, "schools": ["University of Massachusetts - Amherst"], "open": true, "categories": ["Pizza", "Restaurants"], "photo_url": "http://s3-media2.ak.yelpcdn.com/bphoto/OShNbZ0lq1CNc1jBC4f2ZQ/ms.jpg"}, {"city": "Amherst", "review_count": 4, "name": "Purple Gables Bed & Breakfast", "neighborhoods": [], "url": "http://www.yelp.com/biz/purple-gables-bed-and-breakfast-amherst", "type": "business", "business_id": "9HXjkcyjIVCFErU6SxQb9g", "full_address": "232 E Pleasant St\nAmherst, MA 01002", "latitude": 42.3830274, "state": "MA", "longitude": -72.5189461, "stars": 4.0, "schools": ["University of Massachusetts - Amherst"], "open": true, "categories": ["Food", "Hotels & Travel", "Bed & Breakfast", "Bakeries"], "photo_url": "http://s3-media1.ak.yelpcdn.com/bphoto/ZlUARyXlqUCRR2DiJiOgMw/ms.jpg"}, {"city": "Amherst", "review_count": 4, "name": "Russell's Package Store", "neighborhoods": [], "url": "http://www.yelp.com/biz/russells-package-store-amherst", "type": "business", "business_id": "M1-3lbWDPV-crfnkapFMwg", "full_address": "18 Main St\nAmherst, MA 01002", "latitude": 42.3756929, "state": "MA", "longitude": -72.5192835, "stars": 3.0, "schools": ["University of Massachusetts - Amherst"], "open": true, "categories": [], "photo_url": "http://s3-media1.ak.yelpcdn.com/assets/2/www/img/924a6444ca6c/gfx/blank_biz_medium.gif"}, {"city": "Amherst", "review_count": 16, "name": "FroyoWorld", "neighborhoods": [], "url": "http://www.yelp.com/biz/froyoworld-amherst", "type": "business", "business_id": "b88HUwXarEDlFehKzaqzBg", "full_address": "23 N Pleasant St\nAmherst, MA 01002", "latitude": 42.376116, "state": "MA", "longitude": -72.51954, "stars": 3.5, "schools": ["University of Massachusetts - Amherst"], "open": true, "categories": ["Food", "Desserts", "Ice Cream & Frozen Yogurt"], "photo_url": "http://s3-media2.ak.yelpcdn.com/bphoto/u5abJi0PBLgI1OZ1om7TBw/ms.jpg"}, {"city": "Amherst", "review_count": 92, "name": "Amherst Brewing Co", "neighborhoods": [], "url": "http://www.yelp.com/biz/amherst-brewing-co-amherst", "type": "business", "business_id": "Ol8v3U-v4gq7lN0iIXqvXw", "full_address": "10 University Dr\nAmherst, MA 01002", "latitude": 42.3734797, "state": "MA", "longitude": -72.5328553, "stars": 3.0, "schools": ["University of Massachusetts - Amherst"], "open": true, "categories": ["Bars", "Food", "Breweries", "Pubs", "Nightlife", "American (New)", "Restaurants"], "photo_url": "http://s3-media1.ak.yelpcdn.com/bphoto/kkt2b5zno7IJ8gJxz0GonA/ms.jpg"}, {"city": "Amherst", "review_count": 2, "name": "Rooster's Restaurant", "neighborhoods": [], "url": "http://www.yelp.com/biz/roosters-restaurant-amherst", "type": "business", "business_id": "H4b7mZm90HzNez-ISrtChw", "full_address": "138 Sunderland Rd\nAmherst, MA 01002", "latitude": 42.414458, "state": "MA", "longitude": -72.532923, "stars": 4.0, "schools": ["University of Massachusetts - Amherst"], "open": false, "categories": [], "photo_url": "http://s3-media1.ak.yelpcdn.com/assets/2/www/img/924a6444ca6c/gfx/blank_biz_medium.gif"}, {"city": "Amherst", "review_count": 12, "name": "Mystery Train Records", "neighborhoods": [], "url": "http://www.yelp.com/biz/mystery-train-records-amherst", "type": "business", "business_id": "vOryuuNyZcQDAtOgJ3hKCA", "full_address": "12 N Pleasant St\nAmherst, MA 01002", "latitude": 42.3762165, "state": "MA", "longitude": -72.5198888, "stars": 4.0, "schools": ["University of Massachusetts - Amherst"], "open": true, "categories": ["Books, Mags, Music and Video", "Shopping"], "photo_url": "http://s3-media2.ak.yelpcdn.com/bphoto/3Qz8Yryf4f5VloakqJqyCA/ms.jpg"}, {"city": "Hadley", "review_count": 2, "name": "Shelburne Falls Coffee Roasters", "neighborhoods": [], "url": "http://www.yelp.com/biz/shelburne-falls-coffee-roasters-hadley", "type": "business", "business_id": "UE826ZlmmHHJ3Hctgph5qw", "full_address": "322 Russell St\nHadley, MA 01035", "latitude": 42.3546538, "state": "MA", "longitude": -72.5572732, "stars": 2.0, "schools": ["University of Massachusetts - Amherst"], "open": true, "categories": ["Food", "Coffee & Tea"], "photo_url": "http://s3-media1.ak.yelpcdn.com/assets/2/www/img/924a6444ca6c/gfx/blank_biz_medium.gif"}, {"city": "Amherst", "review_count": 4, "name": "Arigato Steak House", "neighborhoods": [], "url": "http://www.yelp.com/biz/arigato-steak-house-amherst", "type": "business", "business_id": "58C-JxSMV3h0rI4z8TH_TA", "full_address": "39 Boltwood Walk\nAmherst, MA 01002", "latitude": 42.376195, "state": "MA", "longitude": -72.5187263, "stars": 3.5, "schools": ["University of Massachusetts - Amherst"], "open": true, "categories": ["Steakhouses", "Japanese", "Restaurants"], "photo_url": "http://s3-media1.ak.yelpcdn.com/assets/2/www/img/924a6444ca6c/gfx/blank_biz_medium.gif"}, {"city": "Hadley", "review_count": 6, "name": "Dave's Soda & Pet City", "neighborhoods": [], "url": "http://www.yelp.com/biz/daves-soda-and-pet-city-hadley", "type": "business", "business_id": "avdAlf9EVns62HrsjryVzg", "full_address": "Mount Farms Mall\nHadley, MA 01035", "latitude": 42.3931447, "state": "MA", "longitude": -72.5520322, "stars": 3.5, "schools": ["University of Massachusetts - Amherst"], "open": true, "categories": ["Specialty Food", "Food", "Pets", "Pet Stores"], "photo_url": "http://s3-media1.ak.yelpcdn.com/bphoto/IoRdFlYJp_nvbp3DeTpTmg/ms.jpg"}, {"city": "Hadley", "review_count": 3, "name": "Western Mass Family Golf Center", "neighborhoods": [], "url": "http://www.yelp.com/biz/western-mass-family-golf-center-hadley", "type": "business", "business_id": "Ctx6jhtPjAb1WgSaNoEieQ", "full_address": "294 Russell St\nHadley, MA 01035", "latitude": 42.3527771, "state": "MA", "longitude": -72.5609148, "stars": 4.0, "schools": ["University of Massachusetts - Amherst"], "open": true, "categories": [], "photo_url": "http://s3-media1.ak.yelpcdn.com/assets/2/www/img/924a6444ca6c/gfx/blank_biz_medium.gif"}, {"city": "Amherst", "review_count": 3, "name": "University of Massachusetts Amherst", "neighborhoods": [], "url": "http://www.yelp.com/biz/university-of-massachusetts-amherst-amherst", "type": "business", "business_id": "DhABkJUEv-Lc6W_64BzB5g", "full_address": "181 Presidents Dr\nAmherst, MA 01003", "latitude": 42.3865348, "state": "MA", "longitude": -72.5254807, "stars": 1.5, "schools": ["University of Massachusetts - Amherst"], "open": true, "categories": ["Colleges & Universities", "Education"], "photo_url": "http://s3-media1.ak.yelpcdn.com/assets/2/www/img/924a6444ca6c/gfx/blank_biz_medium.gif"}, {"city": "Amherst", "review_count": 19, "name": "Amherst Cinema", "neighborhoods": [], "url": "http://www.yelp.com/biz/amherst-cinema-amherst", "type": "business", "business_id": "lZ3MyBPz0zYtYoMDQfYAFg", "full_address": "28 Amity St\nAmherst, MA 01002", "latitude": 42.3758082, "state": "MA", "longitude": -72.5205212, "stars": 4.5, "schools": ["University of Massachusetts - Amherst"], "open": true, "categories": ["Arts & Entertainment", "Cinema"], "photo_url": "http://s3-media1.ak.yelpcdn.com/bphoto/U42zHt3PCsy0JRNG_G8GRQ/ms.jpg"}, {"city": "Amherst", "review_count": 52, "name": "Black Sheep", "neighborhoods": [], "url": "http://www.yelp.com/biz/black-sheep-amherst", "type": "business", "business_id": "QxuZGiHF3jnatCUmI41FmA", "full_address": "79 Main St\nAmherst, MA 01002", "latitude": 42.3756901, "state": "MA", "longitude": -72.5181649, "stars": 3.5, "schools": ["University of Massachusetts - Amherst"], "open": true, "categories": ["Food", "Bakeries", "Delis", "Restaurants"], "photo_url": "http://s3-media4.ak.yelpcdn.com/bphoto/oIeYXM6mcRnZjxub0EpAvg/ms.jpg"}, {"city": "Amherst", "review_count": 7, "name": "Elegance Nail Spa", "neighborhoods": [], "url": "http://www.yelp.com/biz/elegance-nail-spa-amherst", "type": "business", "business_id": "1WaWdqLrgukIW7qulq6YyA", "full_address": "44 Main St\nAmherst, MA 01002", "latitude": 42.375819, "state": "MA", "longitude": -72.519059, "stars": 4.0, "schools": ["University of Massachusetts - Amherst"], "open": true, "categories": ["Nail Salons", "Beauty and Spas"], "photo_url": "http://s3-media4.ak.yelpcdn.com/bphoto/SaszCbD5ej01F5zkV3Iw6A/ms.jpg"}, {"city": "Amherst", "review_count": 3, "name": "Amherst College Museum of Natural History", "neighborhoods": [], "url": "http://www.yelp.com/biz/amherst-college-museum-of-natural-history-amherst", "type": "business", "business_id": "_3J0oVaaH92_lK2EFw9nVA", "full_address": "Amherst College\n11 Barrett Hill Rd\nAmherst, MA 01002", "latitude": 42.371845691092, "state": "MA", "longitude": -72.5141644477844, "stars": 4.5, "schools": ["University of Massachusetts - Amherst"], "open": true, "categories": ["Museums", "Arts & Entertainment"], "photo_url": "http://s3-media3.ak.yelpcdn.com/bphoto/HDMN0CAXLO1yBQC6orqExg/ms.jpg"}, {"city": "Amherst", "review_count": 3, "name": "Allen House Victorian Inn", "neighborhoods": [], "url": "http://www.yelp.com/biz/allen-house-victorian-inn-amherst", "type": "business", "business_id": "oMHdyK71d1vu8ZuSebOYhQ", "full_address": "599 Main St\nAmherst, MA 01002", "latitude": 42.374592, "state": "MA", "longitude": -72.507988, "stars": 3.5, "schools": ["University of Massachusetts - Amherst"], "open": true, "categories": ["Hotels & Travel", "Bed & Breakfast", "Event Planning & Services", "Hotels"], "photo_url": "http://s3-media1.ak.yelpcdn.com/assets/2/www/img/924a6444ca6c/gfx/blank_biz_medium.gif"}, {"city": "Amherst", "review_count": 4, "name": "Primo Pizzeria Too", "neighborhoods": [], "url": "http://www.yelp.com/biz/primo-pizzeria-too-amherst", "type": "business", "business_id": "7rD52PKYYUpAQDSruT8UJA", "full_address": "255 Triangle St\nAmherst, MA 01002", "latitude": 42.381422, "state": "MA", "longitude": -72.5191154, "stars": 5.0, "schools": ["University of Massachusetts - Amherst"], "open": true, "categories": ["Pizza", "Restaurants"], "photo_url": "http://s3-media2.ak.yelpcdn.com/bphoto/3Yf5KQXrrLMYxi3g8UTqpg/ms.jpg"}, {"city": "Amherst", "review_count": 8, "name": "UMass Hotel at the Campus Center", "neighborhoods": [], "url": "http://www.yelp.com/biz/umass-hotel-at-the-campus-center-amherst", "type": "business", "business_id": "bxLquGyUzzdC3f39QJMmYw", "full_address": "1 Campus Center Way\nAmherst, MA 01003", "latitude": 42.3903007507324, "state": "MA", "longitude": -72.532600402832, "stars": 4.0, "schools": ["University of Massachusetts - Amherst"], "open": true, "categories": ["Hotels & Travel", "Event Planning & Services", "Venues & Event Spaces", "Hotels"], "photo_url": "http://s3-media3.ak.yelpcdn.com/bphoto/x_KUcqbCL96ClLI71AIe_Q/ms.jpg"}, {"city": "Amherst", "review_count": 16, "name": "Tabella Restaurant", "neighborhoods": [], "url": "http://www.yelp.com/biz/tabella-restaurant-amherst", "type": "business", "business_id": "FPTTiCzjDgBTzcanfKXsDw", "full_address": "28 Amity St\nAmherst, MA 01002", "latitude": 42.375703, "state": "MA", "longitude": -72.520517, "stars": 4.0, "schools": ["University of Massachusetts - Amherst"], "open": false, "categories": ["American (New)", "Restaurants"], "photo_url": "http://s3-media4.ak.yelpcdn.com/bphoto/dboq2tmn0RGrGkaaosmxmA/ms.jpg"}, {"city": "Northampton", "review_count": 2, "name": "Econolodge", "neighborhoods": [], "url": "http://www.yelp.com/biz/econolodge-northampton", "type": "business", "business_id": "1mE7ch1NkhGxRn_BBZNZ1g", "full_address": "329 Russell Hadly\nNorthampton, MA 01060", "latitude": 42.3629724, "state": "MA", "longitude": -72.5403632, "stars": 4.0, "schools": ["University of Massachusetts - Amherst"], "open": true, "categories": [], "photo_url": "http://s3-media1.ak.yelpcdn.com/assets/2/www/img/924a6444ca6c/gfx/blank_biz_medium.gif"}, {"city": "Amherst", "review_count": 57, "name": "The Lone Wolf", "neighborhoods": [], "url": "http://www.yelp.com/biz/the-lone-wolf-amherst", "type": "business", "business_id": "VlzeNUSkepYtIgYCkrqRbg", "full_address": "63 Main St\nAmherst, MA 01002", "latitude": 42.3757222, "state": "MA", "longitude": -72.5184701, "stars": 4.0, "schools": ["University of Massachusetts - Amherst"], "open": true, "categories": ["Breakfast & Brunch", "American (Traditional)", "Restaurants"], "photo_url": "http://s3-media3.ak.yelpcdn.com/bphoto/U29WSMaF9q_0ysFzVaaaCw/ms.jpg"}, {"city": "Amherst", "review_count": 4, "name": "Rolando's", "neighborhoods": [], "url": "http://www.yelp.com/biz/rolandos-amherst", "type": "business", "business_id": "_Fcc8TK1sFQwRMLFLiPk-Q", "full_address": "25 N Pleasant St\nAmherst, MA 01002", "latitude": 42.3761203, "state": "MA", "longitude": -72.519839, "stars": 3.5, "schools": ["University of Massachusetts - Amherst"], "open": false, "categories": ["Restaurants"], "photo_url": "http://s3-media4.ak.yelpcdn.com/bphoto/tM8w7G8TyZwdpC2UqJwPVQ/ms.jpg"}, {"city": "Amherst", "review_count": 2, "name": "FedEx World Service Center", "neighborhoods": [], "url": "http://www.yelp.com/biz/fedex-world-service-center-amherst", "type": "business", "business_id": "1t0EXtIOoxEp0wflOQUKYw", "full_address": "U Mass Campus Center\nAmherst, MA 01003", "latitude": 42.3911712, "state": "MA", "longitude": -72.5309466, "stars": 2.5, "schools": ["University of Massachusetts - Amherst"], "open": true, "categories": ["Local Services", "Shipping Centers", "Couriers & Delivery Services"], "photo_url": "http://s3-media4.ak.yelpcdn.com/bphoto/j29SNFo5b95w6A2MOtklQw/ms.jpg"}, {"city": "Amherst", "review_count": 61, "name": "Atkins Farms", "neighborhoods": [], "url": "http://www.yelp.com/biz/atkins-farms-amherst", "type": "business", "business_id": "qCeYjXM6N03MTsfQF6LREg", "full_address": "1150 West St\nAmherst, MA 01002", "latitude": 42.318777, "state": "MA", "longitude": -72.5286161, "stars": 4.5, "schools": ["University of Massachusetts - Amherst"], "open": true, "categories": ["Food", "Bakeries", "Grocery", "Ice Cream & Frozen Yogurt"], "photo_url": "http://s3-media3.ak.yelpcdn.com/bphoto/YUUGwTPNIVy1pSfg7voyfg/ms.jpg"}, {"city": "Hadley", "review_count": 3, "name": "Holiday Inn Express Hotel & Suites Amherst", "neighborhoods": [], "url": "http://www.yelp.com/biz/holiday-inn-express-hotel-and-suites-amherst-hadley", "type": "business", "business_id": "rjTNSM-3jMQskDt7or05gA", "full_address": "400 Russell St\nHadley, MA 01035", "latitude": 42.3607172, "state": "MA", "longitude": -72.5452254, "stars": 3.5, "schools": ["University of Massachusetts - Amherst"], "open": true, "categories": ["Hotels & Travel", "Event Planning & Services", "Venues & Event Spaces", "Hotels"], "photo_url": "http://s3-media4.ak.yelpcdn.com/bphoto/8s6yq0RaUU7SMOl6RRO_pQ/ms.jpg"}, {"city": "Hadley", "review_count": 2, "name": "One Way Screen Printing", "neighborhoods": [], "url": "http://www.yelp.com/biz/one-way-screen-printing-hadley", "type": "business", "business_id": "CcDtQxeDYlRAfZMGwqMZjA", "full_address": "47 East Street\nHadley, MA 01035", "latitude": 42.3463336, "state": "MA", "longitude": -72.582593, "stars": 5.0, "schools": ["University of Massachusetts - Amherst"], "open": true, "categories": ["Local Services", "Printing Services"], "photo_url": "http://s3-media1.ak.yelpcdn.com/assets/2/www/img/924a6444ca6c/gfx/blank_biz_medium.gif"}, {"city": "Amherst", "review_count": 8, "name": "Lit Restaurant & Lounge", "neighborhoods": [], "url": "http://www.yelp.com/biz/lit-restaurant-and-lounge-amherst", "type": "business", "business_id": "WSV-t7fuDkvZonTC-MHbPw", "full_address": "41 Boltwood Walk\nAmherst, MA 01002", "latitude": 42.376184, "state": "MA", "longitude": -72.5188285, "stars": 4.5, "schools": ["University of Massachusetts - Amherst"], "open": true, "categories": ["Bars", "American (New)", "Nightlife", "Lounges", "Restaurants"], "photo_url": "http://s3-media1.ak.yelpcdn.com/bphoto/LG6tPOuYHUcrbStN6a6veA/ms.jpg"}, {"city": "Amherst", "review_count": 12, "name": "University of Massachusetts", "neighborhoods": [], "url": "http://www.yelp.com/biz/university-of-massachusetts-amherst-2", "type": "business", "business_id": "zrbf71B_uiRy0Je0giyy0A", "full_address": "1 Campus Center Way\nAmherst, MA 01003", "latitude": 42.389930949351, "state": "MA", "longitude": -72.5283908843994, "stars": 4.5, "schools": ["University of Massachusetts - Amherst"], "open": true, "categories": ["Colleges & Universities", "Education"], "photo_url": "http://s3-media3.ak.yelpcdn.com/bphoto/jBvg9qYtYvkUD_wNgFY1Yg/ms.jpg"}, {"city": "Amherst", "review_count": 4, "name": "China Dynasty", "neighborhoods": [], "url": "http://www.yelp.com/biz/china-dynasty-amherst", "type": "business", "business_id": "p0wzC9-sC7hVl3z8vyf3AQ", "full_address": "351 Northampton Rd\nAmherst, MA 01002", "latitude": 42.366811, "state": "MA", "longitude": -72.533947, "stars": 2.5, "schools": ["University of Massachusetts - Amherst"], "open": false, "categories": ["Chinese", "Restaurants"], "photo_url": "http://s3-media1.ak.yelpcdn.com/assets/2/www/img/924a6444ca6c/gfx/blank_biz_medium.gif"}, {"city": "Amherst", "review_count": 105, "name": "Judie's", "neighborhoods": [], "url": "http://www.yelp.com/biz/judies-amherst", "type": "business", "business_id": "FumYAtwmfAo1d0X3GouTHQ", "full_address": "51 N Pleasant St\nAmherst, MA 01002", "latitude": 42.3765297, "state": "MA", "longitude": -72.5198546, "stars": 3.5, "schools": ["University of Massachusetts - Amherst"], "open": true, "categories": ["American (Traditional)", "Restaurants"], "photo_url": "http://s3-media4.ak.yelpcdn.com/bphoto/Rlplbk_JDW5rPc2fBp0bkw/ms.jpg"}, {"city": "Amherst", "review_count": 11, "name": "La Piazza Ristorante", "neighborhoods": [], "url": "http://www.yelp.com/biz/la-piazza-ristorante-amherst", "type": "business", "business_id": "gqETlVKT3LIAL59WBoPBpQ", "full_address": "30 Boltwood Walk\nAmherst, MA 01002", "latitude": 42.376276, "state": "MA", "longitude": -72.518136, "stars": 3.5, "schools": ["University of Massachusetts - Amherst"], "open": false, "categories": ["Italian", "Pizza", "Restaurants"], "photo_url": "http://s3-media2.ak.yelpcdn.com/bphoto/VDFg1hcM8utlFh-FuAgqRw/ms.jpg"}, {"city": "Hatfield", "review_count": 2, "name": "Hatfield Beef Co", "neighborhoods": [], "url": "http://www.yelp.com/biz/hatfield-beef-co-hatfield", "type": "business", "business_id": "B2b37HiD0aJ6z1ehJHbn7w", "full_address": "42 N Hatfield Rd\nHatfield, MA 01038", "latitude": 42.395173, "state": "MA", "longitude": -72.61031, "stars": 4.0, "schools": ["University of Massachusetts - Amherst"], "open": true, "categories": ["Food"], "photo_url": "http://s3-media1.ak.yelpcdn.com/assets/2/www/img/924a6444ca6c/gfx/blank_biz_medium.gif"}, {"city": "Hampshire", "review_count": 11, "name": "Arizona Pizza Company", "neighborhoods": [], "url": "http://www.yelp.com/biz/arizona-pizza-company-hampshire", "type": "business", "business_id": "rx9X9thYgNImhZWe4o010w", "full_address": "Route 9 Hampshire Mall\nHampshire, MA 01035", "latitude": 42.3592048, "state": "MA", "longitude": -72.5559746, "stars": 3.0, "schools": ["University of Massachusetts - Amherst"], "open": true, "categories": ["Pizza", "Restaurants"], "photo_url": "http://s3-media1.ak.yelpcdn.com/bphoto/bX2RZqcPnTFC9xQaG7fhIQ/ms.jpg"}, {"city": "Amherst", "review_count": 4, "name": "Spirit Haus", "neighborhoods": [], "url": "http://www.yelp.com/biz/spirit-haus-amherst", "type": "business", "business_id": "_tmAs95FomIea9WFlZ0tKA", "full_address": "338 College St\nAmherst, MA 01002", "latitude": 42.3729223, "state": "MA", "longitude": -72.5021947, "stars": 4.5, "schools": ["University of Massachusetts - Amherst"], "open": true, "categories": ["Food", "Beer, Wine & Spirits"], "photo_url": "http://s3-media1.ak.yelpcdn.com/assets/2/www/img/924a6444ca6c/gfx/blank_biz_medium.gif"}, {"city": "Amherst", "review_count": 11, "name": "The Spoke", "neighborhoods": [], "url": "http://www.yelp.com/biz/the-spoke-amherst", "type": "business", "business_id": "6qG0UnftcA8vPKbee4Qykg", "full_address": "34 E Pleasant St\nAmherst, MA 01002", "latitude": 42.3800008, "state": "MA", "longitude": -72.5195037, "stars": 4.5, "schools": ["University of Massachusetts - Amherst"], "open": true, "categories": ["Bars", "Nightlife"], "photo_url": "http://s3-media1.ak.yelpcdn.com/assets/2/www/img/924a6444ca6c/gfx/blank_biz_medium.gif"}, {"city": "Amherst", "review_count": 4, "name": "Pioneer Valley Dermatology, PC", "neighborhoods": [], "url": "http://www.yelp.com/biz/pioneer-valley-dermatology-pc-amherst", "type": "business", "business_id": "NRLKGDi4LFg3RM-XAAoN-g", "full_address": "29 Cottage St\nSte B\nAmherst, MA 01002", "latitude": 42.38077, "state": "MA", "longitude": -72.517219, "stars": 3.5, "schools": ["University of Massachusetts - Amherst"], "open": true, "categories": ["Dermatologists", "Doctors", "Health and Medical"], "photo_url": "http://s3-media1.ak.yelpcdn.com/assets/2/www/img/924a6444ca6c/gfx/blank_biz_medium.gif"}, {"city": "Amherst", "review_count": 10, "name": "Sibies Pizza", "neighborhoods": [], "url": "http://www.yelp.com/biz/sibies-pizza-amherst", "type": "business", "business_id": "08KuvUqdONvE2YE9OGKqWQ", "full_address": "481 West St\nAmherst, MA 01002", "latitude": 42.3395414, "state": "MA", "longitude": -72.5203809, "stars": 4.0, "schools": ["University of Massachusetts - Amherst"], "open": true, "categories": ["Food Delivery Services", "Food", "Pizza", "Restaurants"], "photo_url": "http://s3-media4.ak.yelpcdn.com/bphoto/YEErBD8Bkp54oZk-KyFMGw/ms.jpg"}, {"city": "Amherst", "review_count": 3, "name": "Amherst Nails", "neighborhoods": [], "url": "http://www.yelp.com/biz/amherst-nails-amherst", "type": "business", "business_id": "tqH8GZ_YSaMWNX53yFDzGw", "full_address": "9 E Pleasant St\nSte 4\nAmherst, MA 01002", "latitude": 42.379226, "state": "MA", "longitude": -72.518895, "stars": 3.5, "schools": ["University of Massachusetts - Amherst"], "open": true, "categories": ["Nail Salons", "Beauty and Spas"], "photo_url": "http://s3-media1.ak.yelpcdn.com/assets/2/www/img/924a6444ca6c/gfx/blank_biz_medium.gif"}, {"city": "Amherst", "review_count": 3, "name": "Laughing Dog Bicycles", "neighborhoods": [], "url": "http://www.yelp.com/biz/laughing-dog-bicycles-amherst", "type": "business", "business_id": "I9akYRLLIBS1E74IqvCJlQ", "full_address": "63 S Pleasant St\nAmherst, MA 01002", "latitude": 42.3747797, "state": "MA", "longitude": -72.5200183, "stars": 5.0, "schools": ["University of Massachusetts - Amherst"], "open": true, "categories": ["Shopping", "Mountain Biking", "Sporting Goods", "Bike Rentals", "Bikes", "Active Life"], "photo_url": "http://s3-media3.ak.yelpcdn.com/bphoto/i5WWgkagXCqdIDgf4lKOSQ/ms.jpg"}, {"city": "Amherst", "review_count": 2, "name": "Dunkin Donuts", "neighborhoods": [], "url": "http://www.yelp.com/biz/dunkin-donuts-amherst-7", "type": "business", "business_id": "LJzes4GfuyV-yd1JlD5q_A", "full_address": "175 University Dr\nAmherst, MA 01002", "latitude": 42.377265, "state": "MA", "longitude": -72.532137, "stars": 1.0, "schools": ["University of Massachusetts - Amherst"], "open": true, "categories": [], "photo_url": "http://s3-media1.ak.yelpcdn.com/assets/2/www/img/924a6444ca6c/gfx/blank_biz_medium.gif"}, {"city": "Sunderland", "review_count": 3, "name": "E Osterman Gas Service", "neighborhoods": [], "url": "http://www.yelp.com/biz/e-osterman-gas-service-sunderland", "type": "business", "business_id": "SnQ-N-4is1mEpwSAW5JBBQ", "full_address": "339 Amherst Rd\nSunderland, MA 01375", "latitude": 42.4495871, "state": "MA", "longitude": -72.5598289, "stars": 2.5, "schools": ["University of Massachusetts - Amherst"], "open": true, "categories": [], "photo_url": "http://s3-media1.ak.yelpcdn.com/assets/2/www/img/924a6444ca6c/gfx/blank_biz_medium.gif"}, {"city": "Amherst", "review_count": 2, "name": "Athena's Pizza", "neighborhoods": [], "url": "http://www.yelp.com/biz/athenas-pizza-amherst", "type": "business", "business_id": "Im68PoWLtYHB7AcxGfoM_A", "full_address": "65 University Dr\nSte 1\nAmherst, MA 01002", "latitude": 42.37158, "state": "MA", "longitude": -72.533994, "stars": 4.5, "schools": ["University of Massachusetts - Amherst"], "open": true, "categories": ["Greek", "Italian", "Pizza", "Restaurants"], "photo_url": "http://s3-media1.ak.yelpcdn.com/assets/2/www/img/924a6444ca6c/gfx/blank_biz_medium.gif"}, {"city": "Amherst", "review_count": 3, "name": "Warren P. McGuirk Alumni Stadium", "neighborhoods": [], "url": "http://www.yelp.com/biz/warren-p-mcguirk-alumni-stadium-amherst", "type": "business", "business_id": "OWEQazt83KlNT8ff6NI8rA", "full_address": "1 University Drive\nAmherst, MA 01002", "latitude": 42.3847168, "state": "MA", "longitude": -72.5325661, "stars": 2.5, "schools": ["University of Massachusetts - Amherst"], "open": true, "categories": ["Stadiums & Arenas", "Arts & Entertainment"], "photo_url": "http://s3-media2.ak.yelpcdn.com/bphoto/QS7SHBXR5LfrT_adXg1zAw/ms.jpg"}, {"city": "Amherst", "review_count": 4, "name": "Gotta Go Taxi", "neighborhoods": [], "url": "http://www.yelp.com/biz/gotta-go-taxi-amherst", "type": "business", "business_id": "CFzuVLy94kslBW9QVqDRQQ", "full_address": "256 N Pleasant St Ste 1\nAmherst, MA 01002", "latitude": 42.379685, "state": "MA", "longitude": -72.520254, "stars": 1.5, "schools": ["University of Massachusetts - Amherst"], "open": true, "categories": ["Hotels & Travel", "Taxis", "Transportation"], "photo_url": "http://s3-media1.ak.yelpcdn.com/assets/2/www/img/924a6444ca6c/gfx/blank_biz_medium.gif"}, {"city": "Amherst", "review_count": 81, "name": "Fresh Side", "neighborhoods": [], "url": "http://www.yelp.com/biz/fresh-side-amherst", "type": "business", "business_id": "IiX7lGoQQE3T4wg_1cx8Og", "full_address": "39 S Pleasant St\nAmherst, MA 01002", "latitude": 42.3751208, "state": "MA", "longitude": -72.5198591, "stars": 3.5, "schools": ["University of Massachusetts - Amherst"], "open": true, "categories": ["Food", "Coffee & Tea", "Asian Fusion", "Restaurants"], "photo_url": "http://s3-media1.ak.yelpcdn.com/bphoto/mVmb9k7_T0IbQxVtPo97NA/ms.jpg"}, {"city": "Amherst", "review_count": 17, "name": "Souperbowl", "neighborhoods": [], "url": "http://www.yelp.com/biz/souperbowl-amherst", "type": "business", "business_id": "jQEQQKOmCe0oTia-6F6Pyw", "full_address": "104 N Pleasant St\nAmherst, MA 01002", "latitude": 42.3775853, "state": "MA", "longitude": -72.5199196, "stars": 3.0, "schools": ["University of Massachusetts - Amherst"], "open": true, "categories": ["Soup", "Sandwiches", "Restaurants"], "photo_url": "http://s3-media1.ak.yelpcdn.com/assets/2/www/img/924a6444ca6c/gfx/blank_biz_medium.gif"}, {"city": "Amherst", "review_count": 19, "name": "Johnny's Tavern", "neighborhoods": [], "url": "http://www.yelp.com/biz/johnnys-tavern-amherst", "type": "business", "business_id": "S9w52Y8f_nfv8QXuHmXBCg", "full_address": "30 Boltwood Walk\nAmherst, MA 01002", "latitude": 42.376276, "state": "MA", "longitude": -72.518136, "stars": 4.0, "schools": ["University of Massachusetts - Amherst"], "open": true, "categories": ["Burgers", "American (New)", "Restaurants"], "photo_url": "http://s3-media2.ak.yelpcdn.com/bphoto/ACgOUhtb2aQ-HKS56kBh6w/ms.jpg"}, {"city": "Amherst", "review_count": 5, "name": "30 Boltwood", "neighborhoods": [], "url": "http://www.yelp.com/biz/30-boltwood-amherst", "type": "business", "business_id": "BV7lzWCXot_NQaQ5YS9z7Q", "full_address": "30 Boltwood Ave\nAmherst, MA 01002", "latitude": 42.374527, "state": "MA", "longitude": -72.518396, "stars": 3.0, "schools": ["University of Massachusetts - Amherst"], "open": true, "categories": ["American (New)", "Restaurants"], "photo_url": "http://s3-media2.ak.yelpcdn.com/bphoto/OtGhS2c4CuxcsGsaRnYjfA/ms.jpg"}, {"city": "Amherst", "review_count": 2, "name": "Potter's Auto & Truck Rental at North Amherst Motors", "neighborhoods": [], "url": "http://www.yelp.com/biz/potters-auto-and-truck-rental-at-north-amherst-motors-amherst-3", "type": "business", "business_id": "B9zrN6gHO-rEweAjIVR0Xw", "full_address": "78 Sunderland Rd\nAmherst, MA 01002", "latitude": 42.412813, "state": "MA", "longitude": -72.532195, "stars": 2.5, "schools": ["University of Massachusetts - Amherst"], "open": true, "categories": ["Automotive", "Truck Rental", "Car Rental", "Hotels & Travel"], "photo_url": "http://s3-media1.ak.yelpcdn.com/bphoto/-TktLf8tRAJPsJeOGHtS9Q/ms.jpg"}, {"city": "Hadley", "review_count": 2, "name": "Sportsman's Marina Boat Rental", "neighborhoods": [], "url": "http://www.yelp.com/biz/sportsmans-marina-boat-rental-hadley", "type": "business", "business_id": "fsuLbcnnIFWG5rzy--9nzQ", "full_address": "RR 9\nHadley, MA 01035", "latitude": 42.35989, "state": "MA", "longitude": -72.574175, "stars": 3.0, "schools": ["University of Massachusetts - Amherst"], "open": true, "categories": ["Active Life", "Boating"], "photo_url": "http://s3-media1.ak.yelpcdn.com/assets/2/www/img/924a6444ca6c/gfx/blank_biz_medium.gif"}, {"city": "Amherst", "review_count": 3, "name": "Delano's", "neighborhoods": [], "url": "http://www.yelp.com/biz/delanos-amherst", "type": "business", "business_id": "35Q2qySgp_AxgkCde5e4HA", "full_address": "57 N. Pleasant St.\nAmherst, MA 01002", "latitude": 42.3773214, "state": "MA", "longitude": -72.5198928, "stars": 2.5, "schools": ["University of Massachusetts - Amherst"], "open": true, "categories": [], "photo_url": "http://s3-media1.ak.yelpcdn.com/assets/2/www/img/924a6444ca6c/gfx/blank_biz_medium.gif"}, {"city": "Amherst", "review_count": 2, "name": "Campus Auto Supply", "neighborhoods": [], "url": "http://www.yelp.com/biz/campus-auto-supply-amherst", "type": "business", "business_id": "iiruNMRBWMdxqRtaVIMPkA", "full_address": "205 University Dr\nAmherst, MA 01002", "latitude": 42.366942, "state": "MA", "longitude": -72.534909, "stars": 4.5, "schools": ["University of Massachusetts - Amherst"], "open": true, "categories": [], "photo_url": "http://s3-media1.ak.yelpcdn.com/assets/2/www/img/924a6444ca6c/gfx/blank_biz_medium.gif"}, {"city": "Amherst", "review_count": 2, "name": "Stackers Pub", "neighborhoods": [], "url": "http://www.yelp.com/biz/stackers-pub-amherst", "type": "business", "business_id": "wTJXfjD-KfETh0ZU3iQqqQ", "full_address": "57 N Pleasant St\nAmherst, MA 01002", "latitude": 42.3766016, "state": "MA", "longitude": -72.5198798, "stars": 3.5, "schools": ["University of Massachusetts - Amherst"], "open": true, "categories": ["Bars", "Nightlife"], "photo_url": "http://s3-media2.ak.yelpcdn.com/bphoto/VKigXF2q654OhWKTAJmm9A/ms.jpg"}, {"city": "Amherst", "review_count": 35, "name": "La Veracruzana Mexican Restaurant", "neighborhoods": [], "url": "http://www.yelp.com/biz/la-veracruzana-mexican-restaurant-amherst", "type": "business", "business_id": "3Wr0o6qZfbUoP7mkl0zPoQ", "full_address": "63 N Pleasant St\nAmherst, MA 01002", "latitude": 42.376678, "state": "MA", "longitude": -72.519529, "stars": 3.0, "schools": ["University of Massachusetts - Amherst"], "open": true, "categories": ["Mexican", "Restaurants"], "photo_url": "http://s3-media3.ak.yelpcdn.com/bphoto/QYRF3-GFb_aqXW1CclPBug/ms.jpg"}, {"city": "Hatfield", "review_count": 4, "name": "Fish Tales Bar and Grille", "neighborhoods": [], "url": "http://www.yelp.com/biz/fish-tales-bar-and-grille-hatfield", "type": "business", "business_id": "RkqQC9cvFa12pCWn2leGig", "full_address": "5 School St\nHatfield, MA 01038", "latitude": 42.373167, "state": "MA", "longitude": -72.598461, "stars": 4.0, "schools": ["University of Massachusetts - Amherst"], "open": true, "categories": ["Seafood", "Bars", "Nightlife", "Restaurants"], "photo_url": "http://s3-media1.ak.yelpcdn.com/bphoto/F6i9Rrw7yboCAAC4lDUTRg/ms.jpg"}, {"city": "Hadley", "review_count": 2, "name": "Taylor Rental of Hadley", "neighborhoods": [], "url": "http://www.yelp.com/biz/taylor-rental-of-hadley-hadley", "type": "business", "business_id": "ZEP2jzQPbGnN9Fma1UHyxQ", "full_address": "301 Russell St\nHadley, MA 01035", "latitude": 42.3535146, "state": "MA", "longitude": -72.5594447, "stars": 3.5, "schools": ["University of Massachusetts - Amherst"], "open": true, "categories": [], "photo_url": "http://s3-media1.ak.yelpcdn.com/assets/2/www/img/924a6444ca6c/gfx/blank_biz_medium.gif"}, {"city": "Hadley", "review_count": 3, "name": "Sam's Outdoor Outfitters", "neighborhoods": [], "url": "http://www.yelp.com/biz/sams-outdoor-outfitters-hadley", "type": "business", "business_id": "5dfcKD_krgVx5Gsn-pJxnw", "full_address": "227 Russell St\nHadley, MA 01035", "latitude": 42.3465236, "state": "MA", "longitude": -72.5736686, "stars": 4.5, "schools": ["University of Massachusetts - Amherst"], "open": true, "categories": ["Sporting Goods", "Fashion", "Shopping", "Outdoor Gear", "Sports Wear"], "photo_url": "http://s3-media1.ak.yelpcdn.com/assets/2/www/img/924a6444ca6c/gfx/blank_biz_medium.gif"}, {"city": "Amherst", "review_count": 2, "name": "Atkinson Katherine J MD", "neighborhoods": [], "url": "http://www.yelp.com/biz/atkinson-katherine-j-md-amherst", "type": "business", "business_id": "_LEpQoZASqir0Xt_tOjFlg", "full_address": "29 Cottage St\nAmherst, MA 01002", "latitude": 42.38077, "state": "MA", "longitude": -72.517219, "stars": 3.0, "schools": ["University of Massachusetts - Amherst"], "open": true, "categories": ["Doctors", "Health and Medical"], "photo_url": "http://s3-media1.ak.yelpcdn.com/bphoto/_Q9wQ3BkKURL9abkT1BC7Q/ms.jpg"}, {"city": "Hadley", "review_count": 5, "name": "Peter's Nails", "neighborhoods": [], "url": "http://www.yelp.com/biz/peters-nails-hadley", "type": "business", "business_id": "IdVxb81jCBrcDRXIWsWlCg", "full_address": "458 Russell St\nSte 7\nHadley, MA 01035", "latitude": 42.3649626, "state": "MA", "longitude": -72.5367327, "stars": 4.0, "schools": ["University of Massachusetts - Amherst"], "open": true, "categories": ["Day Spas", "Nail Salons", "Beauty and Spas"], "photo_url": "http://s3-media2.ak.yelpcdn.com/bphoto/ZQV4xjSs_Oru87SgUoeJPw/ms.jpg"}, {"city": "Amherst", "review_count": 8, "name": "Mullins Center", "neighborhoods": [], "url": "http://www.yelp.com/biz/mullins-center-amherst", "type": "business", "business_id": "P4HCpfpFYWLyCnYIowTjLQ", "full_address": "200 Commonwealth Ave\nAmherst, MA 01003", "latitude": 42.3911245, "state": "MA", "longitude": -72.5331953, "stars": 4.0, "schools": ["University of Massachusetts - Amherst"], "open": true, "categories": ["Stadiums & Arenas", "Arts & Entertainment"], "photo_url": "http://s3-media1.ak.yelpcdn.com/bphoto/cymT1hGq_rhkPzLm2HhwuA/ms.jpg"}, {"city": "Amherst", "review_count": 2, "name": "Valley cab", "neighborhoods": [], "url": "http://www.yelp.com/biz/valley-cab-amherst", "type": "business", "business_id": "JLI7EJuxx7RcPNk4OToexA", "full_address": "34 Main St\nAmherst, MA 01002", "latitude": 42.3756953, "state": "MA", "longitude": -72.519072, "stars": 2.0, "schools": ["University of Massachusetts - Amherst"], "open": true, "categories": ["Hotels & Travel", "Taxis", "Transportation", "Airport Shuttles"], "photo_url": "http://s3-media1.ak.yelpcdn.com/assets/2/www/img/924a6444ca6c/gfx/blank_biz_medium.gif"}, {"city": "Hadley", "review_count": 3, "name": "Devine Overhead Doors", "neighborhoods": [], "url": "http://www.yelp.com/biz/devine-overhead-doors-hadley", "type": "business", "business_id": "f58dfOEnJ5FGZxp06xzcPw", "full_address": "106 West St\nHadley, MA 01035", "latitude": 42.3407564, "state": "MA", "longitude": -72.596329, "stars": 3.5, "schools": ["University of Massachusetts - Amherst"], "open": true, "categories": ["Home Services", "Contractors"], "photo_url": "http://s3-media1.ak.yelpcdn.com/assets/2/www/img/924a6444ca6c/gfx/blank_biz_medium.gif"}, {"city": "Hadley", "review_count": 8, "name": "Liquors 44", "neighborhoods": [], "url": "http://www.yelp.com/biz/liquors-44-hadley", "type": "business", "business_id": "2bDntAuAGSu9zFjOi3iMjg", "full_address": "458-9 Campus Plz\nRt 9\nHadley, MA 01035", "latitude": 42.3636981, "state": "MA", "longitude": -72.5398362, "stars": 4.0, "schools": ["University of Massachusetts - Amherst"], "open": true, "categories": ["Food", "Beer, Wine & Spirits"], "photo_url": "http://s3-media2.ak.yelpcdn.com/bphoto/A4bcM21qYVVPfgLSpsox8g/ms.jpg"}, {"city": "Amherst", "review_count": 68, "name": "Rao's Coffee", "neighborhoods": [], "url": "http://www.yelp.com/biz/raos-coffee-amherst", "type": "business", "business_id": "Z6V6XF2q8qX5DInYYw17tA", "full_address": "17 Kellogg Ave\nAmherst, MA 01002", "latitude": 42.377375, "state": "MA", "longitude": -72.518894, "stars": 4.0, "schools": ["University of Massachusetts - Amherst"], "open": true, "categories": ["Food", "Coffee & Tea"], "photo_url": "http://s3-media3.ak.yelpcdn.com/bphoto/JN3hP85JE2R0T8kwClhxww/ms.jpg"}, {"city": "Amherst", "review_count": 3, "name": "Amherst Optical Shoppe", "neighborhoods": [], "url": "http://www.yelp.com/biz/amherst-optical-shoppe-amherst", "type": "business", "business_id": "le6N-lnGZVa-pbF1E_FTvA", "full_address": "195 N Pleasant St\nAmherst, MA 01002", "latitude": 42.3797214, "state": "MA", "longitude": -72.5200899, "stars": 1.0, "schools": ["University of Massachusetts - Amherst"], "open": true, "categories": ["Shopping", "Eyewear & Opticians"], "photo_url": "http://s3-media1.ak.yelpcdn.com/assets/2/www/img/924a6444ca6c/gfx/blank_biz_medium.gif"}, {"city": "Hadley", "review_count": 2, "name": "Jonathan's Sports World", "neighborhoods": [], "url": "http://www.yelp.com/biz/jonathans-sports-world-hadley-2", "type": "business", "business_id": "tuKE5oN8bfpskD2AK-Qxbg", "full_address": "331 Russell St\nHadley, MA 01035", "latitude": 42.3559748, "state": "MA", "longitude": -72.5544561, "stars": 5.0, "schools": ["University of Massachusetts - Amherst"], "open": true, "categories": ["Sporting Goods", "Shopping"], "photo_url": "http://s3-media1.ak.yelpcdn.com/assets/2/www/img/924a6444ca6c/gfx/blank_biz_medium.gif"}, {"city": "Hadley", "review_count": 30, "name": "Gohyang Korean Restaurant", "neighborhoods": [], "url": "http://www.yelp.com/biz/gohyang-korean-restaurant-hadley", "type": "business", "business_id": "c3ePjP1yvNH_RUHSEF0WdQ", "full_address": "111 Russell St\nHadley, MA 01035", "latitude": 42.3420468, "state": "MA", "longitude": -72.5936835, "stars": 4.0, "schools": ["University of Massachusetts - Amherst"], "open": true, "categories": ["Korean", "Restaurants"], "photo_url": "http://s3-media2.ak.yelpcdn.com/bphoto/U4ZldgdibhdxrEewG7CjIQ/ms.jpg"}, {"city": "Amherst", "review_count": 2, "name": "Cumberland Farms", "neighborhoods": [], "url": "http://www.yelp.com/biz/cumberland-farms-amherst", "type": "business", "business_id": "w-1y9XaoreYJAJHWhSskNg", "full_address": "19 Montague Rd\nAmherst, MA 01002", "latitude": 42.410996, "state": "MA", "longitude": -72.5306441, "stars": 4.5, "schools": ["University of Massachusetts - Amherst"], "open": true, "categories": ["Food", "Convenience Stores"], "photo_url": "http://s3-media1.ak.yelpcdn.com/assets/2/www/img/924a6444ca6c/gfx/blank_biz_medium.gif"}, {"city": "Amherst", "review_count": 5, "name": "Elements Hot Tub Spa", "neighborhoods": [], "url": "http://www.yelp.com/biz/elements-hot-tub-spa-amherst", "type": "business", "business_id": "YI4U5Qew95gxkbs_RjO89g", "full_address": "373 Main St\nAmherst, MA 01002", "latitude": 42.3756761, "state": "MA", "longitude": -72.505449, "stars": 5.0, "schools": ["University of Massachusetts - Amherst"], "open": true, "categories": ["Beauty and Spas"], "photo_url": "http://s3-media2.ak.yelpcdn.com/bphoto/0XQjGHyOAgwK1kf8fl39zg/ms.jpg"}, {"city": "Amherst", "review_count": 4, "name": "Emily Dickinson Museum", "neighborhoods": [], "url": "http://www.yelp.com/biz/emily-dickinson-museum-amherst", "type": "business", "business_id": "JTcPfVn5_N8yBt81SMNAsg", "full_address": "280 Main St\nAmherst, MA 01002", "latitude": 42.3759948, "state": "MA", "longitude": -72.5148299, "stars": 4.5, "schools": ["University of Massachusetts - Amherst"], "open": true, "categories": ["Museums", "Arts & Entertainment", "Local Flavor"], "photo_url": "http://s3-media2.ak.yelpcdn.com/bphoto/CtQHrPCPyYvN18cb1EtyJg/ms.jpg"}, {"city": "Amherst", "review_count": 4, "name": "Fatzo's", "neighborhoods": [], "url": "http://www.yelp.com/biz/fatzos-amherst", "type": "business", "business_id": "md_yYBbMi17XvSIVALlmnw", "full_address": "25 N Pleasant St\nAmherst, MA 01002", "latitude": 42.3761203, "state": "MA", "longitude": -72.519839, "stars": 3.5, "schools": ["University of Massachusetts - Amherst"], "open": false, "categories": ["Burgers", "Restaurants"], "photo_url": "http://s3-media1.ak.yelpcdn.com/assets/2/www/img/924a6444ca6c/gfx/blank_biz_medium.gif"}, {"city": "Hadley", "review_count": 4, "name": "Four Seasons Wine & Liquor", "neighborhoods": [], "url": "http://www.yelp.com/biz/four-seasons-wine-and-liquor-hadley", "type": "business", "business_id": "aRzFeBf-hUCr4dkNQl-P3g", "full_address": "333 Russell Street\nHadley, MA 01035", "latitude": 42.3561211, "state": "MA", "longitude": -72.5541614, "stars": 3.0, "schools": ["University of Massachusetts - Amherst"], "open": true, "categories": ["Shopping", "Food", "Beer, Wine & Spirits", "Tobacco Shops", "Event Planning & Services", "Party Supplies"], "photo_url": "http://s3-media1.ak.yelpcdn.com/bphoto/D-43E2Apu3q0U2RxOh4AaA/ms.jpg"}, {"city": "Hadley", "review_count": 6, "name": "Pioneer Valley CrossFit", "neighborhoods": [], "url": "http://www.yelp.com/biz/pioneer-valley-crossfit-hadley", "type": "business", "business_id": "-7r5-GDmuXsgRhkBnN0nqA", "full_address": "220 Russell St\nSte 100\nHadley, MA 01035", "latitude": 42.3457336, "state": "MA", "longitude": -72.5754093, "stars": 5.0, "schools": ["University of Massachusetts - Amherst"], "open": true, "categories": ["Active Life", "Gyms", "Fitness & Instruction"], "photo_url": "http://s3-media4.ak.yelpcdn.com/bphoto/KeLLB8yx9JsDgB2GlE8TFQ/ms.jpg"}, {"city": "Amherst", "review_count": 15, "name": "Monkey Bar & Grill", "neighborhoods": [], "url": "http://www.yelp.com/biz/monkey-bar-and-grill-amherst-2", "type": "business", "business_id": "YnPF-O9PSpWOeR_GgoNlsQ", "full_address": "63 N Pleasant St\nAmherst, MA 01002", "latitude": 42.376678, "state": "MA", "longitude": -72.519529, "stars": 2.0, "schools": ["University of Massachusetts - Amherst"], "open": true, "categories": ["American (New)", "Nightlife", "Dance Clubs", "Restaurants"], "photo_url": "http://s3-media3.ak.yelpcdn.com/bphoto/-T2t9FsWGMW-Z5nt1S6lBQ/ms.jpg"}, {"city": "Hadley", "review_count": 3, "name": "Applebee's", "neighborhoods": [], "url": "http://www.yelp.com/biz/applebees-hadley", "type": "business", "business_id": "q9yRUhtTnlxTJPhTMrMWCg", "full_address": "100 Westgate Center Dr\nHadley, MA 01035", "latitude": 42.3614777, "state": "MA", "longitude": -72.5425321, "stars": 1.5, "schools": ["University of Massachusetts - Amherst"], "open": true, "categories": ["Burgers", "American (New)", "Restaurants"], "photo_url": "http://s3-media2.ak.yelpcdn.com/bphoto/-xJs46vo5QpG2MgHbWyWyw/ms.jpg"}, {"city": "Amherst", "review_count": 2, "name": "Gold's Gym of Amherst", "neighborhoods": [], "url": "http://www.yelp.com/biz/golds-gym-of-amherst-amherst", "type": "business", "business_id": "QuuehfcNexJTr0HL6pnI2A", "full_address": "10 University Dr\nAmherst, MA 01002", "latitude": 42.3734797, "state": "MA", "longitude": -72.5328553, "stars": 2.0, "schools": ["University of Massachusetts - Amherst"], "open": true, "categories": ["Active Life", "Gyms", "Fitness & Instruction"], "photo_url": "http://s3-media1.ak.yelpcdn.com/assets/2/www/img/924a6444ca6c/gfx/blank_biz_medium.gif"}, {"city": "Amherst", "review_count": 3, "name": "Sugar Jones Cookies", "neighborhoods": [], "url": "http://www.yelp.com/biz/sugar-jones-cookies-amherst", "type": "business", "business_id": "JB-h3X2TIxBWkS5d8uL5hQ", "full_address": "1 E Pleasant St\nAmherst, MA 01002", "latitude": 42.3792341, "state": "MA", "longitude": -72.5197492, "stars": 4.5, "schools": ["University of Massachusetts - Amherst"], "open": true, "categories": ["Food", "Bakeries"], "photo_url": "http://s3-media4.ak.yelpcdn.com/bphoto/eeEAMbWOExxBanwf_TMZjw/ms.jpg"}, {"city": "Amherst", "review_count": 17, "name": "Rafters", "neighborhoods": [], "url": "http://www.yelp.com/biz/rafters-amherst", "type": "business", "business_id": "M8aBK5z7dLNovpIuKrCOEQ", "full_address": "422 Amity St\nAmherst, MA 01002", "latitude": 42.373086, "state": "MA", "longitude": -72.533773, "stars": 4.0, "schools": ["University of Massachusetts - Amherst"], "open": true, "categories": ["Bars", "Nightlife"], "photo_url": "http://s3-media1.ak.yelpcdn.com/bphoto/m7M3nyOgH2nLg6wdypk3KA/ms.jpg"}, {"city": "Amherst", "review_count": 3, "name": "Zyblut Motor Works", "neighborhoods": [], "url": "http://www.yelp.com/biz/zyblut-motor-works-amherst", "type": "business", "business_id": "R14P3D93zp_HIpNRxFoH9g", "full_address": "398 Northampton Rd\nAmherst, MA 01002", "latitude": 42.365465, "state": "MA", "longitude": -72.534848, "stars": 3.5, "schools": ["University of Massachusetts - Amherst"], "open": true, "categories": ["Auto Repair", "Automotive"], "photo_url": "http://s3-media1.ak.yelpcdn.com/assets/2/www/img/924a6444ca6c/gfx/blank_biz_medium.gif"}, {"city": "Amherst", "review_count": 5, "name": "Adventure Outfitters", "neighborhoods": [], "url": "http://www.yelp.com/biz/adventure-outfitters-amherst", "type": "business", "business_id": "YgeONC66RHk3D5SQ5LTfCw", "full_address": "451 Russell\nAmherst, MA 01002", "latitude": 42.3639162, "state": "MA", "longitude": -72.5384496, "stars": 3.0, "schools": ["University of Massachusetts - Amherst"], "open": true, "categories": ["Sporting Goods", "Shopping", "Outdoor Gear"], "photo_url": "http://s3-media4.ak.yelpcdn.com/bphoto/BA0y5qiVc1qZcnxHVxelVQ/ms.jpg"}, {"city": "Hadley", "review_count": 6, "name": "Trader Joes", "neighborhoods": [], "url": "http://www.yelp.com/biz/trader-joes-hadley", "type": "business", "business_id": "DVqGHtZlrUdRXZkeyGve5g", "full_address": "375 Russell St\nHadley, MA 01035", "latitude": 42.358407, "state": "MA", "longitude": -72.54919, "stars": 4.0, "schools": ["University of Massachusetts - Amherst"], "open": true, "categories": ["Food", "Convenience Stores", "Grocery"], "photo_url": "http://s3-media2.ak.yelpcdn.com/bphoto/5JAUb8cKt6FB2afx3JE0pw/ms.jpg"}, {"city": "Amherst", "review_count": 12, "name": "Food For Thought Books", "neighborhoods": [], "url": "http://www.yelp.com/biz/food-for-thought-books-amherst", "type": "business", "business_id": "VUXzKET78wCT7c3pNJUnBw", "full_address": "106 N Pleasant St\nAmherst, MA 01002", "latitude": 42.3775845, "state": "MA", "longitude": -72.5199196, "stars": 4.5, "schools": ["University of Massachusetts - Amherst"], "open": true, "categories": ["Books, Mags, Music and Video", "Shopping", "Bookstores"], "photo_url": "http://s3-media3.ak.yelpcdn.com/bphoto/7U1pXsi5g-CvVeH4xUbDFg/ms.jpg"}, {"city": "Amherst", "review_count": 2, "name": "Amherst Town of", "neighborhoods": [], "url": "http://www.yelp.com/biz/amherst-town-of-amherst-2", "type": "business", "business_id": "lrVVpyP-aBRmP1I1KUqXkw", "full_address": "Amherst Rd\nAmherst, MA 01002", "latitude": 42.37686, "state": "MA", "longitude": -72.46914, "stars": 2.5, "schools": ["University of Massachusetts - Amherst"], "open": true, "categories": [], "photo_url": "http://s3-media1.ak.yelpcdn.com/assets/2/www/img/924a6444ca6c/gfx/blank_biz_medium.gif"}, {"city": "Hadley", "review_count": 3, "name": "The Valley Dentists", "neighborhoods": [], "url": "http://www.yelp.com/biz/the-valley-dentists-hadley", "type": "business", "business_id": "KQWMdG-7bhx2kNBdovnTZQ", "full_address": "138 Russell St\nSte 1\nHadley, MA 01035", "latitude": 42.3422985, "state": "MA", "longitude": -72.5886845, "stars": 5.0, "schools": ["University of Massachusetts - Amherst"], "open": true, "categories": ["Health and Medical", "Dentists", "General Dentistry"], "photo_url": "http://s3-media1.ak.yelpcdn.com/assets/2/www/img/924a6444ca6c/gfx/blank_biz_medium.gif"}, {"city": "Hadley", "review_count": 4, "name": "Econo Lodge", "neighborhoods": [], "url": "http://www.yelp.com/biz/econo-lodge-hadley", "type": "business", "business_id": "rgnLzeRSrEUsB_9F9sBxSQ", "full_address": "237 Russell St\nHadley, MA 01035", "latitude": 42.3471691, "state": "MA", "longitude": -72.5723493, "stars": 4.5, "schools": ["University of Massachusetts - Amherst"], "open": true, "categories": ["Hotels & Travel", "Event Planning & Services", "Hotels"], "photo_url": "http://s3-media1.ak.yelpcdn.com/assets/2/www/img/924a6444ca6c/gfx/blank_biz_medium.gif"}, {"city": "Amherst", "review_count": 7, "name": "Black Walnut Inn", "neighborhoods": [], "url": "http://www.yelp.com/biz/black-walnut-inn-amherst", "type": "business", "business_id": "YQQU-aIXy2cCJNaiennlPA", "full_address": "1184 N Pleasant St\nAmherst, MA 01002", "latitude": 42.4094679, "state": "MA", "longitude": -72.531859, "stars": 4.0, "schools": ["University of Massachusetts - Amherst"], "open": true, "categories": ["Hotels & Travel", "Bed & Breakfast", "Guest Houses"], "photo_url": "http://s3-media1.ak.yelpcdn.com/bphoto/V8A3mTuDL9kLPOQwDgnMVA/ms.jpg"}, {"city": "Hadley", "review_count": 3, "name": "Lowe's Home Improvement", "neighborhoods": [], "url": "http://www.yelp.com/biz/lowes-home-improvement-hadley", "type": "business", "business_id": "m7gm3-LVknB_Fi1jlN4V8w", "full_address": "282 Russell St\nHadley, MA 01035", "latitude": 42.3514833, "state": "MA", "longitude": -72.5635287, "stars": 3.0, "schools": ["University of Massachusetts - Amherst"], "open": true, "categories": ["Hardware Stores", "Shopping", "Home & Garden"], "photo_url": "http://s3-media3.ak.yelpcdn.com/bphoto/cTtBM_4XgOQRroWt12s2_Q/ms.jpg"}, {"city": "Hadley", "review_count": 7, "name": "Courtyard Hadley Amherst", "neighborhoods": [], "url": "http://www.yelp.com/biz/courtyard-hadley-amherst-hadley", "type": "business", "business_id": "IbOkRQ67dtiDms7wzrSBsw", "full_address": "423 Russell St\nHadley, MA 01035", "latitude": 42.362507, "state": "MA", "longitude": -72.539822, "stars": 4.0, "schools": ["University of Massachusetts - Amherst"], "open": true, "categories": ["Hotels & Travel", "Event Planning & Services", "Hotels"], "photo_url": "http://s3-media1.ak.yelpcdn.com/assets/2/www/img/924a6444ca6c/gfx/blank_biz_medium.gif"}, {"city": "Amherst", "review_count": 4, "name": "Atkins Fruit Bowl", "neighborhoods": [], "url": "http://www.yelp.com/biz/atkins-fruit-bowl-amherst", "type": "business", "business_id": "KxqgKI9TODZ3Z1_lPoTf2w", "full_address": "1150 West St\nAmherst, MA 01002", "latitude": 42.318777, "state": "MA", "longitude": -72.5286161, "stars": 5.0, "schools": ["University of Massachusetts - Amherst"], "open": true, "categories": ["Bakeries", "Shopping", "Florists", "Food", "Caterers", "Specialty Food", "Event Planning & Services", "Flowers & Gifts", "Fruits & Veggies"], "photo_url": "http://s3-media1.ak.yelpcdn.com/assets/2/www/img/924a6444ca6c/gfx/blank_biz_medium.gif"}, {"city": "Amherst", "review_count": 3, "name": "People's Market", "neighborhoods": [], "url": "http://www.yelp.com/biz/peoples-market-amherst", "type": "business", "business_id": "kaiz7lD3qoC0ZJzGKQcr5A", "full_address": "Student Union Building\n41 Campus Center Way\nAmherst, MA 01003", "latitude": 42.3911712, "state": "MA", "longitude": -72.5309466, "stars": 5.0, "schools": ["University of Massachusetts - Amherst"], "open": true, "categories": ["Food", "Convenience Stores"], "photo_url": "http://s3-media1.ak.yelpcdn.com/bphoto/XqHbibSrLJZbZBNLRuZtgQ/ms.jpg"}, {"city": "Amherst", "review_count": 50, "name": "Miss Saigon", "neighborhoods": [], "url": "http://www.yelp.com/biz/miss-saigon-amherst", "type": "business", "business_id": "sRO-U8Kxd1tXJlENTqv89A", "full_address": "96 N Pleasant St\nAmherst, MA 01002", "latitude": 42.377159, "state": "MA", "longitude": -72.5204679, "stars": 3.5, "schools": ["University of Massachusetts - Amherst"], "open": true, "categories": ["Restaurants", "Vietnamese"], "photo_url": "http://s3-media2.ak.yelpcdn.com/bphoto/F0QUjBp8CjbQIocm6KuN6w/ms.jpg"}, {"city": "Amherst", "review_count": 3, "name": "Newman Cafe", "neighborhoods": [], "url": "http://www.yelp.com/biz/newman-cafe-amherst", "type": "business", "business_id": "z55ycyxaqyb_r8xd74Mdmg", "full_address": "N Pleasant\nAmherst, MA 01002", "latitude": 42.386634463178, "state": "MA", "longitude": -72.5231552124023, "stars": 3.5, "schools": ["University of Massachusetts - Amherst"], "open": true, "categories": ["Diners", "Restaurants"], "photo_url": "http://s3-media1.ak.yelpcdn.com/assets/2/www/img/924a6444ca6c/gfx/blank_biz_medium.gif"}, {"city": "Amherst", "review_count": 14, "name": "Baku's African Restaurant", "neighborhoods": [], "url": "http://www.yelp.com/biz/bakus-african-restaurant-amherst", "type": "business", "business_id": "tFW5YcoXnKz8xRA-l3gRWA", "full_address": "197 N Pleasant St\nAmherst, MA 01002", "latitude": 42.3797753, "state": "MA", "longitude": -72.5200946, "stars": 4.5, "schools": ["University of Massachusetts - Amherst"], "open": true, "categories": ["African", "Restaurants"], "photo_url": "http://s3-media4.ak.yelpcdn.com/bphoto/kCnxlCMRg9HjfoBJjSDRtg/ms.jpg"}, {"city": "Hadley", "review_count": 12, "name": "Zoe's Fish House", "neighborhoods": [], "url": "http://www.yelp.com/biz/zoes-fish-house-hadley", "type": "business", "business_id": "8SlAYQ4DY9rnUus6dSeEDw", "full_address": "195 Russell St\nHadley, MA 01035", "latitude": 42.3437124, "state": "MA", "longitude": -72.5796592, "stars": 3.5, "schools": ["University of Massachusetts - Amherst"], "open": true, "categories": ["Seafood", "Steakhouses", "Restaurants"], "photo_url": "http://s3-media1.ak.yelpcdn.com/bphoto/Jg89rz4YnBDvtz1pozLq1A/ms.jpg"}, {"city": "Hadley", "review_count": 2, "name": "Hadley Tire & Auto Center", "neighborhoods": [], "url": "http://www.yelp.com/biz/hadley-tire-and-auto-center-hadley", "type": "business", "business_id": "_VbBmuNcK8Yxy4s_pBD88Q", "full_address": "430 Russell St\nHadley, MA 01035", "latitude": 42.3637428, "state": "MA", "longitude": -72.5391681, "stars": 3.5, "schools": ["University of Massachusetts - Amherst"], "open": true, "categories": [], "photo_url": "http://s3-media1.ak.yelpcdn.com/assets/2/www/img/924a6444ca6c/gfx/blank_biz_medium.gif"}, {"city": "Amherst", "review_count": 9, "name": "Hampshire College", "neighborhoods": [], "url": "http://www.yelp.com/biz/hampshire-college-amherst", "type": "business", "business_id": "QmZwgd6z71fUwNJ2JjZqvQ", "full_address": "893 West St\nAmherst, MA 01002", "latitude": 42.323302, "state": "MA", "longitude": -72.524807, "stars": 4.0, "schools": ["University of Massachusetts - Amherst"], "open": true, "categories": ["Colleges & Universities", "Education"], "photo_url": "http://s3-media1.ak.yelpcdn.com/assets/2/www/img/924a6444ca6c/gfx/blank_biz_medium.gif"}, {"city": "Hadley", "review_count": 2, "name": "AT&T", "neighborhoods": [], "url": "http://www.yelp.com/biz/at-and-t-hadley", "type": "business", "business_id": "mOzYqVBmTCkw_eHX2MytFQ", "full_address": "359 Russell St\nHadley, MA 01035", "latitude": 42.356909, "state": "MA", "longitude": -72.552154, "stars": 3.0, "schools": ["University of Massachusetts - Amherst"], "open": true, "categories": ["Shopping", "Mobile Phones"], "photo_url": "http://s3-media1.ak.yelpcdn.com/assets/2/www/img/924a6444ca6c/gfx/blank_biz_medium.gif"}, {"city": "Amherst", "review_count": 8, "name": "The Blue Wall", "neighborhoods": [], "url": "http://www.yelp.com/biz/the-blue-wall-amherst", "type": "business", "business_id": "5lZ6vYXgDWjYC2DfUfiLuw", "full_address": "University of Massachusetts Campus Center\n1 Campus Center Way\nAmherst, MA 01003", "latitude": 42.3903083, "state": "MA", "longitude": -72.5326174, "stars": 3.5, "schools": ["University of Massachusetts - Amherst"], "open": true, "categories": ["Food"], "photo_url": "http://s3-media1.ak.yelpcdn.com/assets/2/www/img/924a6444ca6c/gfx/blank_biz_medium.gif"}, {"city": "Hadley", "review_count": 13, "name": "The Donut Man", "neighborhoods": [], "url": "http://www.yelp.com/biz/the-donut-man-hadley", "type": "business", "business_id": "fz_qCpZo6WbystRINrtB3A", "full_address": "142 Russell St\nHadley, MA 01035", "latitude": 42.3423145, "state": "MA", "longitude": -72.5881942, "stars": 3.5, "schools": ["University of Massachusetts - Amherst"], "open": true, "categories": ["Food", "Donuts"], "photo_url": "http://s3-media2.ak.yelpcdn.com/bphoto/X5EWJ16j2O1glFnSIjOrJw/ms.jpg"}, {"city": "Hadley", "review_count": 59, "name": "Mi Tierra", "neighborhoods": [], "url": "http://www.yelp.com/biz/mi-tierra-hadley", "type": "business", "business_id": "DG4CznrJTyjhDHbYDs-45A", "full_address": "206 Russel St\nHadley, MA 01035", "latitude": 42.3445618, "state": "MA", "longitude": -72.5778732, "stars": 3.5, "schools": ["University of Massachusetts - Amherst"], "open": true, "categories": ["Specialty Food", "Ethnic Food", "Mexican", "Food", "Restaurants"], "photo_url": "http://s3-media2.ak.yelpcdn.com/bphoto/ovbSVb8G0zpIO-XrntHkuQ/ms.jpg"}, {"city": "Amherst", "review_count": 28, "name": "Wings Over Amherst", "neighborhoods": [], "url": "http://www.yelp.com/biz/wings-over-amherst-amherst", "type": "business", "business_id": "a3-znGameOY1scTqN8ZWXg", "full_address": "55 University Dr\nAmherst, MA 01002", "latitude": 42.372032, "state": "MA", "longitude": -72.533529, "stars": 4.5, "schools": ["University of Massachusetts - Amherst"], "open": true, "categories": ["Chicken Wings", "Restaurants"], "photo_url": "http://s3-media3.ak.yelpcdn.com/bphoto/tjQ8k8kyXJEgqKSi0XUtBw/ms.jpg"}, {"city": "Amherst", "review_count": 3, "name": "Amherst Massage", "neighborhoods": [], "url": "http://www.yelp.com/biz/amherst-massage-amherst", "type": "business", "business_id": "sNSdmLIkozspIA1ljCexLw", "full_address": "592 Main St\nAmherst, MA 01002", "latitude": 42.3761, "state": "MA", "longitude": -72.5082, "stars": 5.0, "schools": ["University of Massachusetts - Amherst"], "open": true, "categories": ["Massage", "Beauty and Spas"], "photo_url": "http://s3-media2.ak.yelpcdn.com/bphoto/yjq33RBowHEkFavXqYsR6w/ms.jpg"}, {"city": "Hadley", "review_count": 2, "name": "Barnes & Noble Booksellers", "neighborhoods": [], "url": "http://www.yelp.com/biz/barnes-and-noble-booksellers-hadley", "type": "business", "business_id": "I_KlxsoiTnsj6cmNc6eQnw", "full_address": "335 Russell St\nHadley, MA 01035", "latitude": 42.3560909, "state": "MA", "longitude": -72.5542613, "stars": 4.0, "schools": ["University of Massachusetts - Amherst"], "open": true, "categories": [], "photo_url": "http://s3-media1.ak.yelpcdn.com/assets/2/www/img/924a6444ca6c/gfx/blank_biz_medium.gif"}, {"city": "Amherst", "review_count": 25, "name": "Bertucci's", "neighborhoods": [], "url": "http://www.yelp.com/biz/bertuccis-amherst", "type": "business", "business_id": "RPKnhndXvWHukeZ2e8stYQ", "full_address": "51 E Pleasant St\nAmherst, MA 01002", "latitude": 42.380742, "state": "MA", "longitude": -72.5188809, "stars": 2.5, "schools": ["University of Massachusetts - Amherst"], "open": true, "categories": ["Italian", "Pizza", "Restaurants"], "photo_url": "http://s3-media3.ak.yelpcdn.com/bphoto/og6TEcmTeKVFTqdM665Shg/ms.jpg"}, {"city": "Hadley", "review_count": 2, "name": "Verizon Wireless", "neighborhoods": [], "url": "http://www.yelp.com/biz/verizon-wireless-hadley", "type": "business", "business_id": "3U55OyOqWhEwCXNFoamcwg", "full_address": "360 Russell St\nHadley, MA 01035", "latitude": 42.3583641, "state": "MA", "longitude": -72.5498625, "stars": 4.5, "schools": ["University of Massachusetts - Amherst"], "open": true, "categories": ["Shopping", "Home Services", "Internet Service Providers", "Mobile Phones", "Professional Services", "Electronics"], "photo_url": "http://s3-media1.ak.yelpcdn.com/bphoto/tP1t4OYCPd7miPd4tBWsFA/ms.jpg"}, {"city": "Amherst", "review_count": 4, "name": "University Lodge", "neighborhoods": [], "url": "http://www.yelp.com/biz/university-lodge-amherst", "type": "business", "business_id": "nKuZ0Jc6DmheebEjbwPVow", "full_address": "345 N Pleasant St\nAmherst, MA 01002", "latitude": 42.382617, "state": "MA", "longitude": -72.519704, "stars": 3.0, "schools": ["University of Massachusetts - Amherst"], "open": true, "categories": [], "photo_url": "http://s3-media1.ak.yelpcdn.com/assets/2/www/img/924a6444ca6c/gfx/blank_biz_medium.gif"}, {"city": "Amherst", "review_count": 49, "name": "Pasta E Basta", "neighborhoods": [], "url": "http://www.yelp.com/biz/pasta-e-basta-amherst", "type": "business", "business_id": "LXXAXCEiU4nCM8wScorQHQ", "full_address": "26 Main Street\nAmherst, MA 01002", "latitude": 42.3758075, "state": "MA", "longitude": -72.5192724, "stars": 4.0, "schools": ["University of Massachusetts - Amherst"], "open": true, "categories": ["Italian", "Restaurants"], "photo_url": "http://s3-media2.ak.yelpcdn.com/bphoto/7LHfJ5erjVUwuFSvc00WKA/ms.jpg"}, {"city": "Hatfield", "review_count": 3, "name": "Old Mill on the Falls", "neighborhoods": [], "url": "http://www.yelp.com/biz/old-mill-on-the-falls-hatfield", "type": "business", "business_id": "tcYS47Ijoi8vQ1oyApMrCw", "full_address": "87 School St\nHatfield, MA 01038", "latitude": 42.371792, "state": "MA", "longitude": -72.60812, "stars": 4.5, "schools": ["University of Massachusetts - Amherst"], "open": true, "categories": ["Hotels & Travel", "Event Planning & Services", "Hotels"], "photo_url": "http://s3-media2.ak.yelpcdn.com/bphoto/zl0uLXtmOdmgH3ALOsoTfw/ms.jpg"}, {"city": "Amherst", "review_count": 2, "name": "Occupy UMass", "neighborhoods": [], "url": "http://www.yelp.com/biz/occupy-umass-amherst", "type": "business", "business_id": "vQSm6zHwrmB45OZRgONUlA", "full_address": "390 Whitmore Administration Bldg\nAmherst, MA 01003", "latitude": 42.3860279, "state": "MA", "longitude": -72.5266757, "stars": 3.0, "schools": ["University of Massachusetts - Amherst"], "open": true, "categories": ["Arts & Entertainment", "Local Flavor"], "photo_url": "http://s3-media4.ak.yelpcdn.com/bphoto/PW7l2r__IB6pd5rMu7V0wA/ms.jpg"}, {"city": "Hadley", "review_count": 3, "name": "Ideal Movers & Storage", "neighborhoods": [], "url": "http://www.yelp.com/biz/ideal-movers-and-storage-hadley", "type": "business", "business_id": "3LhbvsAT7RxRrDx7nTFyfw", "full_address": "10 Mill Valley Rd\nHadley, MA 01035", "latitude": 42.348989, "state": "MA", "longitude": -72.5664388, "stars": 5.0, "schools": ["University of Massachusetts - Amherst"], "open": true, "categories": ["Movers", "Home Services"], "photo_url": "http://s3-media1.ak.yelpcdn.com/assets/2/www/img/924a6444ca6c/gfx/blank_biz_medium.gif"}, {"city": "Hadley", "review_count": 17, "name": "Whole Foods Market", "neighborhoods": [], "url": "http://www.yelp.com/biz/whole-foods-market-hadley", "type": "business", "business_id": "vTvNlqeHk4orSa7sSZFV1A", "full_address": "327 Russell St\nHadley, MA 01035", "latitude": 42.3553821, "state": "MA", "longitude": -72.5556889, "stars": 4.0, "schools": ["University of Massachusetts - Amherst"], "open": true, "categories": ["Food", "Grocery"], "photo_url": "http://s3-media3.ak.yelpcdn.com/bphoto/y6MRAZXfkbIcf77500wZoA/ms.jpg"}, {"city": "Amherst", "review_count": 2, "name": "North Amherst Motors Collision Repair Center", "neighborhoods": [], "url": "http://www.yelp.com/biz/north-amherst-motors-collision-repair-center-amherst", "type": "business", "business_id": "vi9aRAN7_0l-xe4envUEGw", "full_address": "78 Sunderland Rd\nAmherst, MA 01002", "latitude": 42.412813, "state": "MA", "longitude": -72.532195, "stars": 2.5, "schools": ["University of Massachusetts - Amherst"], "open": true, "categories": ["Automotive", "Body Shops"], "photo_url": "http://s3-media4.ak.yelpcdn.com/bphoto/_y4p4KDPYEF1280FztyXEw/ms.jpg"}, {"city": "Amherst", "review_count": 2, "name": "B & B Appliance Service", "neighborhoods": [], "url": "http://www.yelp.com/biz/b-and-b-appliance-service-amherst", "type": "business", "business_id": "orzW5LR9bwaOws0aOXvgHg", "full_address": "86 Gray St\nAmherst, MA 01002", "latitude": 42.378836, "state": "MA", "longitude": -72.511337, "stars": 5.0, "schools": ["University of Massachusetts - Amherst"], "open": true, "categories": [], "photo_url": "http://s3-media1.ak.yelpcdn.com/assets/2/www/img/924a6444ca6c/gfx/blank_biz_medium.gif"}, {"city": "Amherst", "review_count": 4, "name": "Bucci", "neighborhoods": [], "url": "http://www.yelp.com/biz/bucci-amherst", "type": "business", "business_id": "QVMxEWOGuoAlJxPrJzML3A", "full_address": "25 N Pleasant St\nAmherst, MA 01002", "latitude": 42.3771563, "state": "MA", "longitude": -72.5198841, "stars": 4.5, "schools": ["University of Massachusetts - Amherst"], "open": true, "categories": ["Hair Salons", "Beauty and Spas"], "photo_url": "http://s3-media1.ak.yelpcdn.com/assets/2/www/img/924a6444ca6c/gfx/blank_biz_medium.gif"}, {"city": "Belchertown", "review_count": 2, "name": "Martin's Auto", "neighborhoods": [], "url": "http://www.yelp.com/biz/martins-auto-belchertown", "type": "business", "business_id": "DJFc6K9ryUMRig7EpCh1SQ", "full_address": "1126 Federal St\nBelchertown, MA 01007", "latitude": 42.344922, "state": "MA", "longitude": -72.463174, "stars": 3.0, "schools": ["University of Massachusetts - Amherst"], "open": true, "categories": ["Auto Repair", "Automotive"], "photo_url": "http://s3-media1.ak.yelpcdn.com/assets/2/www/img/924a6444ca6c/gfx/blank_biz_medium.gif"}, {"city": "Amherst", "review_count": 2, "name": "Watroba's Liquors", "neighborhoods": [], "url": "http://www.yelp.com/biz/watrobas-liquors-amherst", "type": "business", "business_id": "APJAMnqQTFmK3EGQdY4Iig", "full_address": "81 Sunderland Rd\nAmherst, MA 01002", "latitude": 42.41297, "state": "MA", "longitude": -72.531674, "stars": 4.0, "schools": ["University of Massachusetts - Amherst"], "open": true, "categories": [], "photo_url": "http://s3-media1.ak.yelpcdn.com/assets/2/www/img/924a6444ca6c/gfx/blank_biz_medium.gif"}, {"city": "Amherst", "review_count": 2, "name": "Bruegger's Bagel Bakery", "neighborhoods": [], "url": "http://www.yelp.com/biz/brueggers-bagel-bakery-amherst", "type": "business", "business_id": "A0e-tQr8h6nZ7a9VzZMgCg", "full_address": "170 N Pleasant St\nAmherst, MA 01002", "latitude": 42.3793633, "state": "MA", "longitude": -72.5200158, "stars": 3.5, "schools": ["University of Massachusetts - Amherst"], "open": true, "categories": [], "photo_url": "http://s3-media1.ak.yelpcdn.com/assets/2/www/img/924a6444ca6c/gfx/blank_biz_medium.gif"}, {"city": "Hadley", "review_count": 9, "name": "Sofia's Praises", "neighborhoods": [], "url": "http://www.yelp.com/biz/sofias-praises-hadley", "type": "business", "business_id": "ggT0ynhCLlp0eAahXdq8ug", "full_address": "8 Railroad St\nHadley, MA 01035", "latitude": 42.344064, "state": "MA", "longitude": -72.591278, "stars": 5.0, "schools": ["University of Massachusetts - Amherst"], "open": true, "categories": ["Polish", "Restaurants"], "photo_url": "http://s3-media1.ak.yelpcdn.com/assets/2/www/img/924a6444ca6c/gfx/blank_biz_medium.gif"}, {"city": "Amherst", "review_count": 4, "name": "Dunkin Donuts", "neighborhoods": [], "url": "http://www.yelp.com/biz/dunkin-donuts-amherst", "type": "business", "business_id": "jZsabhZHuC0aBX88qP53pg", "full_address": "312 College St\nAmherst, MA 01002", "latitude": 42.374447, "state": "MA", "longitude": -72.503806, "stars": 2.5, "schools": ["University of Massachusetts - Amherst"], "open": true, "categories": [], "photo_url": "http://s3-media1.ak.yelpcdn.com/assets/2/www/img/924a6444ca6c/gfx/blank_biz_medium.gif"}, {"city": "Amherst", "review_count": 2, "name": "Hickory Ridge Golf Club", "neighborhoods": [], "url": "http://www.yelp.com/biz/hickory-ridge-golf-club-amherst", "type": "business", "business_id": "5UWkbSgFRIOdevprXJqQMQ", "full_address": "194 W Pomeroy Ln\nAmherst, MA 01002", "latitude": 42.3402698, "state": "MA", "longitude": -72.530086, "stars": 4.0, "schools": ["University of Massachusetts - Amherst"], "open": true, "categories": ["Active Life", "Golf"], "photo_url": "http://s3-media3.ak.yelpcdn.com/bphoto/ub6ymdkH1si3095RrBag_Q/ms.jpg"}, {"city": "Amherst", "review_count": 8, "name": "Pho Noodle Shop", "neighborhoods": [], "url": "http://www.yelp.com/biz/pho-noodle-shop-amherst", "type": "business", "business_id": "I_08L_M6ojnbSz9HsX9aIg", "full_address": "41 Boltwood Walk\nAmherst, MA 01002", "latitude": 42.3758144, "state": "MA", "longitude": -72.518293, "stars": 3.0, "schools": ["University of Massachusetts - Amherst"], "open": false, "categories": ["Korean", "Restaurants", "Vietnamese"], "photo_url": "http://s3-media3.ak.yelpcdn.com/bphoto/MHVyKnWIAYWEKHrVTcD5WQ/ms.jpg"}, {"city": "Hadley", "review_count": 4, "name": "Midas Auto Service Experts", "neighborhoods": [], "url": "http://www.yelp.com/biz/midas-auto-service-experts-hadley", "type": "business", "business_id": "adDbg0aDtqp2M0x9oLycVQ", "full_address": "397 Russell St\nHadley, MA 01035", "latitude": 42.360587, "state": "MA", "longitude": -72.5451815, "stars": 4.5, "schools": ["University of Massachusetts - Amherst"], "open": true, "categories": ["Auto Repair", "Automotive"], "photo_url": "http://s3-media2.ak.yelpcdn.com/bphoto/nkyiOpaks7rHN_Oy5AfP-Q/ms.jpg"}, {"city": "Hadley", "review_count": 2, "name": "Sindhu Yoga", "neighborhoods": [], "url": "http://www.yelp.com/biz/sindhu-yoga-hadley", "type": "business", "business_id": "V7mWLjizmQchGC9MsFPO7g", "full_address": "41 Hadley Pl\nHadley, MA 01035", "latitude": 42.3503163, "state": "MA", "longitude": -72.5854584, "stars": 3.5, "schools": ["University of Massachusetts - Amherst"], "open": false, "categories": ["Active Life", "Yoga", "Fitness & Instruction"], "photo_url": "http://s3-media4.ak.yelpcdn.com/bphoto/oN7hxBPF6FSNEhJtSCWDSw/ms.jpg"}, {"city": "Hadley", "review_count": 52, "name": "Esselon Coffee Roasting Co", "neighborhoods": [], "url": "http://www.yelp.com/biz/esselon-coffee-roasting-co-hadley", "type": "business", "business_id": "0tX2BR7qE-IP5Ne6vLwy3A", "full_address": "99 Russell St\nHadley, MA 01035", "latitude": 42.341488, "state": "MA", "longitude": -72.597603, "stars": 4.0, "schools": ["University of Massachusetts - Amherst"], "open": true, "categories": ["Food", "Coffee & Tea", "Breakfast & Brunch", "Restaurants"], "photo_url": "http://s3-media3.ak.yelpcdn.com/bphoto/QoGVT2ixx77IVx_PkTlYqQ/ms.jpg"}, {"city": "Amherst", "review_count": 8, "name": "Amherst Books", "neighborhoods": [], "url": "http://www.yelp.com/biz/amherst-books-amherst-2", "type": "business", "business_id": "mWBXYrZYqQfV29-kgCmi8Q", "full_address": "8 Main St\nAmherst, MA 01002", "latitude": 42.3757883, "state": "MA", "longitude": -72.5195731, "stars": 4.0, "schools": ["University of Massachusetts - Amherst"], "open": true, "categories": ["Books, Mags, Music and Video", "Shopping", "Bookstores"], "photo_url": "http://s3-media2.ak.yelpcdn.com/bphoto/wMXDASqPgVx37B339OFWoA/ms.jpg"}, {"city": "Amherst", "review_count": 43, "name": "Amherst Coffee", "neighborhoods": [], "url": "http://www.yelp.com/biz/amherst-coffee-amherst", "type": "business", "business_id": "fuuzSe_xGqXLIw7Jxw9RjA", "full_address": "28 Amity St\nAmherst, MA 01002", "latitude": 42.375703, "state": "MA", "longitude": -72.520517, "stars": 3.5, "schools": ["University of Massachusetts - Amherst"], "open": true, "categories": ["Food", "Coffee & Tea"], "photo_url": "http://s3-media2.ak.yelpcdn.com/bphoto/VfssaxOjh7qI6zYGgp2Lpw/ms.jpg"}, {"city": "Sunderland", "review_count": 4, "name": "Dove's Nest Restaurant", "neighborhoods": [], "url": "http://www.yelp.com/biz/doves-nest-restaurant-sunderland", "type": "business", "business_id": "epqJjZou4WhvNHm3YI0yaw", "full_address": "283 Amherst Rd\nSunderland, MA 01375", "latitude": 42.452004, "state": "MA", "longitude": -72.5634007, "stars": 3.5, "schools": ["University of Massachusetts - Amherst"], "open": true, "categories": ["Diners", "Restaurants"], "photo_url": "http://s3-media3.ak.yelpcdn.com/bphoto/DLTi-q5TC5ZnMjAFlsm8SA/ms.jpg"}, {"city": "Hadley", "review_count": 6, "name": "Salvation Army Thrift Store", "neighborhoods": [], "url": "http://www.yelp.com/biz/salvation-army-thrift-store-hadley", "type": "business", "business_id": "cdDzHuzov-q9UHXI9Mlh8g", "full_address": "310 Russell St\nHadley, MA 01035", "latitude": 42.3542304, "state": "MA", "longitude": -72.5580667, "stars": 2.5, "schools": ["University of Massachusetts - Amherst"], "open": true, "categories": ["Used, Vintage & Consignment", "Fashion", "Shopping"], "photo_url": "http://s3-media1.ak.yelpcdn.com/assets/2/www/img/924a6444ca6c/gfx/blank_biz_medium.gif"}, {"city": "Amherst", "review_count": 4, "name": "Kelly's Restaurant", "neighborhoods": [], "url": "http://www.yelp.com/biz/kellys-restaurant-amherst", "type": "business", "business_id": "WQkrz00jNyQsaJadxL0h7Q", "full_address": "314 College St\nAmherst, MA 01002", "latitude": 42.3731821, "state": "MA", "longitude": -72.5035168, "stars": 4.5, "schools": ["University of Massachusetts - Amherst"], "open": true, "categories": ["Diners", "Restaurants"], "photo_url": "http://s3-media3.ak.yelpcdn.com/bphoto/x3cQnBCFamIu16Lt5BPl1w/ms.jpg"}, {"city": "Amherst", "review_count": 2, "name": "Earthfoods Cafe", "neighborhoods": [], "url": "http://www.yelp.com/biz/earthfoods-cafe-amherst", "type": "business", "business_id": "54NNpmmHGyas53lS-hqzJQ", "full_address": "310 Student Union\n41 Campus Center Way\nAmherst, MA 01003", "latitude": 42.3904383, "state": "MA", "longitude": -72.5321526, "stars": 4.5, "schools": ["University of Massachusetts - Amherst"], "open": true, "categories": ["Vegetarian", "Restaurants"], "photo_url": "http://s3-media2.ak.yelpcdn.com/bphoto/uQ2M5Zdig746yBn7y02JzQ/ms.jpg"}, {"city": "Hadley", "review_count": 28, "name": "Carmelina's At the Commons", "neighborhoods": [], "url": "http://www.yelp.com/biz/carmelinas-at-the-commons-hadley", "type": "business", "business_id": "0jQI7AktAB-m_cg54wY0aw", "full_address": "96 Russell St\nHadley, MA 01035", "latitude": 42.341641, "state": "MA", "longitude": -72.5971495, "stars": 3.0, "schools": ["University of Massachusetts - Amherst"], "open": true, "categories": ["Bars", "Italian", "Nightlife", "Lounges", "Restaurants"], "photo_url": "http://s3-media3.ak.yelpcdn.com/bphoto/z1WNiD9urKMs_O6bLLHdOA/ms.jpg"}, {"city": "Hadley", "review_count": 5, "name": "Best Buy", "neighborhoods": [], "url": "http://www.yelp.com/biz/best-buy-hadley", "type": "business", "business_id": "d_6t_yby2f7GSao35ehj2g", "full_address": "367 Russell St\n# 40\nHadley, MA 01035", "latitude": 42.3582551, "state": "MA", "longitude": -72.5497346, "stars": 3.5, "schools": ["University of Massachusetts - Amherst"], "open": true, "categories": ["Electronics", "Shopping"], "photo_url": "http://s3-media4.ak.yelpcdn.com/bphoto/VRHRX5ydx-X9-YLX8egqww/ms.jpg"}, {"city": "Amherst", "review_count": 21, "name": "Bart's Homemade", "neighborhoods": [], "url": "http://www.yelp.com/biz/barts-homemade-amherst", "type": "business", "business_id": "VECkMLeBCIOIwGhXOIRuRw", "full_address": "103 N Pleasant St\nAmherst, MA 01002", "latitude": 42.37722, "state": "MA", "longitude": -72.519143, "stars": 3.5, "schools": ["University of Massachusetts - Amherst"], "open": true, "categories": ["Food", "Ice Cream & Frozen Yogurt", "Coffee & Tea"], "photo_url": "http://s3-media2.ak.yelpcdn.com/bphoto/kwh40AItgI62cYNiZCz_yg/ms.jpg"}, {"city": "Hadley", "review_count": 2, "name": "Fancy Nails", "neighborhoods": [], "url": "http://www.yelp.com/biz/fancy-nails-hadley", "type": "business", "business_id": "gKT1bL4Vg9HuqZeG6povMQ", "full_address": "367 Russell St\nHadley, MA 01035", "latitude": 42.3563676, "state": "MA", "longitude": -72.5478422, "stars": 1.5, "schools": ["University of Massachusetts - Amherst"], "open": true, "categories": ["Nail Salons", "Beauty and Spas"], "photo_url": "http://s3-media1.ak.yelpcdn.com/assets/2/www/img/924a6444ca6c/gfx/blank_biz_medium.gif"}, {"city": "Amherst", "review_count": 8, "name": "White Hut", "neighborhoods": [], "url": "http://www.yelp.com/biz/white-hut-amherst", "type": "business", "business_id": "2faHaK3FPhfzFvJZ5i3U9w", "full_address": "1A Boltwood Walk\nAmherst, MA 01002", "latitude": 42.375999, "state": "MA", "longitude": -72.518606, "stars": 3.5, "schools": ["University of Massachusetts - Amherst"], "open": true, "categories": ["Specialty Food", "Food", "Burgers", "Restaurants"], "photo_url": "http://s3-media2.ak.yelpcdn.com/bphoto/_PI8CNZZ3ijN8mIaFEikcw/ms.jpg"}, {"city": "Amherst", "review_count": 3, "name": "The Blue Marble", "neighborhoods": [], "url": "http://www.yelp.com/biz/the-blue-marble-amherst", "type": "business", "business_id": "-3RrTaKWnK4urj-uQm-WCQ", "full_address": "191 N Pleasant St\nAmherst, MA 01002", "latitude": 42.378602, "state": "MA", "longitude": -72.519569, "stars": 4.5, "schools": ["University of Massachusetts - Amherst"], "open": true, "categories": ["Shopping", "Jewelry", "Arts & Crafts", "Event Planning & Services", "Cards & Stationery", "Flowers & Gifts"], "photo_url": "http://s3-media3.ak.yelpcdn.com/bphoto/DM61o66bZ-VGVJmu_HUEKg/ms.jpg"}, {"city": "Amherst", "review_count": 9, "name": "Charlie's", "neighborhoods": [], "url": "http://www.yelp.com/biz/charlies-amherst", "type": "business", "business_id": "23XfD5YrEG1UzOZrfkjgLg", "full_address": "1 Pray St\nAmherst, MA 01002", "latitude": 42.3804264, "state": "MA", "longitude": -72.517764, "stars": 4.0, "schools": ["University of Massachusetts - Amherst"], "open": false, "categories": ["Bars", "Nightlife"], "photo_url": "http://s3-media1.ak.yelpcdn.com/assets/2/www/img/924a6444ca6c/gfx/blank_biz_medium.gif"}, {"city": "Amherst", "review_count": 4, "name": "Arise", "neighborhoods": [], "url": "http://www.yelp.com/biz/arise-amherst", "type": "business", "business_id": "4YsbILBLlYEMXPjTvdHqIg", "full_address": "28 Amity St\nAmherst, MA 01002", "latitude": 42.375703, "state": "MA", "longitude": -72.520517, "stars": 4.0, "schools": ["University of Massachusetts - Amherst"], "open": true, "categories": ["Bars", "Restaurants", "Pubs", "Nightlife", "American (New)", "Pizza"], "photo_url": "http://s3-media1.ak.yelpcdn.com/assets/2/www/img/924a6444ca6c/gfx/blank_biz_medium.gif"}, {"city": "Amherst", "review_count": 2, "name": "El Comalito", "neighborhoods": [], "url": "http://www.yelp.com/biz/el-comalito-amherst", "type": "business", "business_id": "AosVp_67irlM1MzpgURciw", "full_address": "460 West St\nAmherst, MA 01002", "latitude": 42.3410636, "state": "MA", "longitude": -72.5199521, "stars": 4.0, "schools": ["University of Massachusetts - Amherst"], "open": true, "categories": ["American (New)", "Restaurants"], "photo_url": "http://s3-media1.ak.yelpcdn.com/assets/2/www/img/924a6444ca6c/gfx/blank_biz_medium.gif"}, {"city": "North Amherst", "review_count": 15, "name": "Amherst House of Pizza", "neighborhoods": [], "url": "http://www.yelp.com/biz/amherst-house-of-pizza-north-amherst", "type": "business", "business_id": "UEYeGewAHsCLA-OAFxKJ5A", "full_address": "17B Montague Rd\nNorth Amherst, MA 01002", "latitude": 42.4109267, "state": "MA", "longitude": -72.5306841, "stars": 4.0, "schools": ["University of Massachusetts - Amherst"], "open": true, "categories": ["Pizza", "Restaurants"], "photo_url": "http://s3-media1.ak.yelpcdn.com/bphoto/YmCDlbxljkgNkLhjyjOtkQ/ms.jpg"}, {"city": "Sunderland", "review_count": 67, "name": "Bub's BBQ", "neighborhoods": [], "url": "http://www.yelp.com/biz/bubs-bbq-sunderland", "type": "business", "business_id": "gjyFpVijSZC6PUqnu8N7BQ", "full_address": "676 Amherst Rd\nSunderland, MA 01375", "latitude": 42.430087, "state": "MA", "longitude": -72.542486, "stars": 3.5, "schools": ["University of Massachusetts - Amherst"], "open": true, "categories": ["Barbeque", "Restaurants"], "photo_url": "http://s3-media2.ak.yelpcdn.com/bphoto/vfyfANLYrrLBms8QnPLznA/ms.jpg"}, {"city": "Amherst", "review_count": 2, "name": "West Cemetery", "neighborhoods": [], "url": "http://www.yelp.com/biz/west-cemetery-amherst", "type": "business", "business_id": "N7qZEvs_Pa1X1wMfX6M_KQ", "full_address": "Triangle Street\nAmherst, MA 01002", "latitude": 42.379632, "state": "MA", "longitude": -72.516621, "stars": 3.5, "schools": ["University of Massachusetts - Amherst"], "open": true, "categories": ["Landmarks & Historical Buildings", "Public Services & Government"], "photo_url": "http://s3-media2.ak.yelpcdn.com/bphoto/nDtw1EdHUpGCgER2nyXLcQ/ms.jpg"}, {"city": "Amherst", "review_count": 18, "name": "Mango Mango", "neighborhoods": [], "url": "http://www.yelp.com/biz/mango-mango-amherst", "type": "business", "business_id": "2Ho61yyEnWGrqmCfkEj1mw", "full_address": "61 Main St\nAmherst, MA 01002", "latitude": 42.375559, "state": "MA", "longitude": -72.518471, "stars": 4.5, "schools": ["University of Massachusetts - Amherst"], "open": true, "categories": ["Vegetarian", "Vegan", "Restaurants"], "photo_url": "http://s3-media4.ak.yelpcdn.com/bphoto/8GqR5jU0bSLKYbOWCCSYOg/ms.jpg"}, {"city": "Hadley", "review_count": 2, "name": "Loonar Tattoo and Piercing", "neighborhoods": [], "url": "http://www.yelp.com/biz/loonar-tattoo-and-piercing-hadley", "type": "business", "business_id": "9LJ6vlJCgDm9UlxIbhyDTQ", "full_address": "206 Russell St\nHadley, MA 01035", "latitude": 42.3445618, "state": "MA", "longitude": -72.5778732, "stars": 4.5, "schools": ["University of Massachusetts - Amherst"], "open": true, "categories": ["Tattoo", "Piercing", "Beauty and Spas"], "photo_url": "http://s3-media1.ak.yelpcdn.com/assets/2/www/img/924a6444ca6c/gfx/blank_biz_medium.gif"}, {"city": "Hadley", "review_count": 5, "name": "Target", "neighborhoods": [], "url": "http://www.yelp.com/biz/target-hadley", "type": "business", "business_id": "NleyIwEmt2KfauXtFbTotg", "full_address": "367 Russell St\nHadley, MA 01035", "latitude": 42.357072, "state": "MA", "longitude": -72.5475266, "stars": 3.5, "schools": ["University of Massachusetts - Amherst"], "open": true, "categories": ["Department Stores", "Fashion", "Shopping", "Drugstores", "Discount Store"], "photo_url": "http://s3-media4.ak.yelpcdn.com/bphoto/eZuHvAhTi9_xl_nA2pVqkA/ms.jpg"}, {"city": "Hadley", "review_count": 5, "name": "Primo Pizzeria", "neighborhoods": [], "url": "http://www.yelp.com/biz/primo-pizzeria-hadley", "type": "business", "business_id": "ZUl4lCYWPxaR7TO4Neaksg", "full_address": "103 Russell St\nHadley, MA 01035", "latitude": 42.3419629, "state": "MA", "longitude": -72.5956581, "stars": 3.5, "schools": ["University of Massachusetts - Amherst"], "open": true, "categories": [], "photo_url": "http://s3-media3.ak.yelpcdn.com/bphoto/L77gGBLCS_7p38Ts1UfvIw/ms.jpg"}, {"city": "Amherst", "review_count": 6, "name": "Hastings A J Inc", "neighborhoods": [], "url": "http://www.yelp.com/biz/hastings-a-j-inc-amherst", "type": "business", "business_id": "XtXFiaWnws4xnTMJq09Z6g", "full_address": "45 S Pleasant St\nAmherst, MA 01002", "latitude": 42.3750507, "state": "MA", "longitude": -72.5200007, "stars": 4.5, "schools": ["University of Massachusetts - Amherst"], "open": true, "categories": [], "photo_url": "http://s3-media4.ak.yelpcdn.com/bphoto/ZXd8_kBIdRvMxF4nZ99coQ/ms.jpg"}, {"city": "Amherst", "review_count": 7, "name": "Hair East", "neighborhoods": [], "url": "http://www.yelp.com/biz/hair-east-amherst", "type": "business", "business_id": "oWWgM052VB6TfQy8xkktog", "full_address": "103 N Pleasant St\nAmherst, MA 01002", "latitude": 42.37722, "state": "MA", "longitude": -72.519143, "stars": 2.5, "schools": ["University of Massachusetts - Amherst"], "open": true, "categories": ["Hair Salons", "Hair Removal", "Beauty and Spas"], "photo_url": "http://s3-media2.ak.yelpcdn.com/bphoto/osTlMNLd4BCCdg7pWrPCsg/ms.jpg"}, {"city": "Amherst", "review_count": 2, "name": "left-click Computers", "neighborhoods": [], "url": "http://www.yelp.com/biz/left-click-computers-amherst", "type": "business", "business_id": "2NzXwHM9fQRwk9_1SF-9eQ", "full_address": "15 Cowles Ave\nAmherst, MA 01002", "latitude": 42.378054, "state": "MA", "longitude": -72.520759, "stars": 3.5, "schools": ["University of Massachusetts - Amherst"], "open": true, "categories": ["Shopping", "Computers", "Local Services", "IT Services & Computer Repair", "Professional Services", "Web Design"], "photo_url": "http://s3-media2.ak.yelpcdn.com/bphoto/SfSSbSjSOQmwjtIxF9-tdQ/ms.jpg"}, {"city": "Sunderland", "review_count": 4, "name": "Seven O's", "neighborhoods": [], "url": "http://www.yelp.com/biz/seven-os-sunderland", "type": "business", "business_id": "ZwCv1b_rmbH8vagNTXKRFg", "full_address": "330 Amherst Rd\nSunderland, MA 01375", "latitude": 42.4497496, "state": "MA", "longitude": -72.5594061, "stars": 4.5, "schools": ["University of Massachusetts - Amherst"], "open": false, "categories": ["Nightlife"], "photo_url": "http://s3-media1.ak.yelpcdn.com/assets/2/www/img/924a6444ca6c/gfx/blank_biz_medium.gif"}, {"city": "Amherst", "review_count": 6, "name": "Du Bois Library", "neighborhoods": [], "url": "http://www.yelp.com/biz/du-bois-library-amherst", "type": "business", "business_id": "Q_KmjsAxmXEccFBvrsKN_g", "full_address": "Amherst, MA", "latitude": 42.3803676, "state": "MA", "longitude": -72.523143, "stars": 5.0, "schools": ["University of Massachusetts - Amherst"], "open": true, "categories": ["Colleges & Universities", "Education"], "photo_url": "http://s3-media2.ak.yelpcdn.com/bphoto/2iP58H33baQOUHdJi4swCg/ms.jpg"}, {"city": "Amherst", "review_count": 6, "name": "Auto Express", "neighborhoods": [], "url": "http://www.yelp.com/biz/auto-express-amherst", "type": "business", "business_id": "84PwXNDAOVQL412Ft6vj9g", "full_address": "118 S East St\nAmherst, MA 01002", "latitude": 42.372361, "state": "MA", "longitude": -72.500829, "stars": 4.0, "schools": ["University of Massachusetts - Amherst"], "open": true, "categories": ["Auto Repair", "Automotive"], "photo_url": "http://s3-media2.ak.yelpcdn.com/bphoto/B7rUz_TKzcVe9vNX2AjPDg/ms.jpg"}, {"city": "Amherst", "review_count": 20, "name": "High Horse", "neighborhoods": [], "url": "http://www.yelp.com/biz/high-horse-amherst", "type": "business", "business_id": "e5bI0nEjKHM6xYRc1hb3vA", "full_address": "24 N Pleasant St\nAmherst, MA 01002", "latitude": 42.3763254, "state": "MA", "longitude": -72.5198928, "stars": 4.0, "schools": ["University of Massachusetts - Amherst"], "open": true, "categories": ["Bars", "Pubs", "Nightlife", "American (New)", "Sports Bars", "Restaurants"], "photo_url": "http://s3-media4.ak.yelpcdn.com/bphoto/xyy_rDpCfz4dMFWREVsfzg/ms.jpg"}, {"city": "Hadley", "review_count": 11, "name": "Maple Farm Foods", "neighborhoods": [], "url": "http://www.yelp.com/biz/maple-farm-foods-hadley", "type": "business", "business_id": "WGWXwg2w0yRVxH6KJ1iTJg", "full_address": "10 S Maple St\nHadley, MA 01035", "latitude": 42.3531294, "state": "MA", "longitude": -72.5514107, "stars": 4.5, "schools": ["University of Massachusetts - Amherst"], "open": true, "categories": ["Specialty Food", "Food", "Grocery", "Fruits & Veggies", "Local Flavor"], "photo_url": "http://s3-media1.ak.yelpcdn.com/bphoto/MbE5aApZYfppIjTRPdUUvw/ms.jpg"}, {"city": "Amherst", "review_count": 5, "name": "Amherst Hairstylists", "neighborhoods": [], "url": "http://www.yelp.com/biz/amherst-hairstylists-amherst", "type": "business", "business_id": "op34GXVaKm0qeX6yUaRJGA", "full_address": "321 Main St\nAmherst, MA 01002", "latitude": 42.3756, "state": "MA", "longitude": -72.5139, "stars": 5.0, "schools": ["University of Massachusetts - Amherst"], "open": true, "categories": ["Hair Salons", "Beauty and Spas"], "photo_url": "http://s3-media1.ak.yelpcdn.com/assets/2/www/img/924a6444ca6c/gfx/blank_biz_medium.gif"}, {"city": "Amherst", "review_count": 2, "name": "The Laundry Club", "neighborhoods": [], "url": "http://www.yelp.com/biz/the-laundry-club-amherst", "type": "business", "business_id": "RndMM5Urxfq6uEai8O5r5Q", "full_address": "6 University Dr\nAmherst, MA 01002", "latitude": 42.3736524, "state": "MA", "longitude": -72.5328396, "stars": 3.0, "schools": ["University of Massachusetts - Amherst"], "open": true, "categories": ["Local Services", "Dry Cleaning & Laundry"], "photo_url": "http://s3-media4.ak.yelpcdn.com/bphoto/150l5DfaYkfOoMGJvWGeUA/ms.jpg"}, {"city": "Amherst", "review_count": 2, "name": "Styles by Deborah", "neighborhoods": [], "url": "http://www.yelp.com/biz/styles-by-deborah-amherst", "type": "business", "business_id": "12gxJgqwSy1igK9bkB5WTw", "full_address": "835  Main St\nAmherst, MA 01002", "latitude": 42.376415, "state": "MA", "longitude": -72.495881, "stars": 5.0, "schools": ["University of Massachusetts - Amherst"], "open": true, "categories": ["Hair Salons", "Beauty and Spas"], "photo_url": "http://s3-media1.ak.yelpcdn.com/assets/2/www/img/924a6444ca6c/gfx/blank_biz_medium.gif"}, {"city": "Amherst", "review_count": 4, "name": "Sycamore Stables", "neighborhoods": [], "url": "http://www.yelp.com/biz/sycamore-stables-amherst", "type": "business", "business_id": "rRYX3q9gbY2SBkUtAXYudA", "full_address": "50 Station Rd\nAmherst, MA 01002", "latitude": 42.343016, "state": "MA", "longitude": -72.492874, "stars": 4.0, "schools": ["University of Massachusetts - Amherst"], "open": true, "categories": [], "photo_url": "http://s3-media1.ak.yelpcdn.com/assets/2/www/img/924a6444ca6c/gfx/blank_biz_medium.gif"}, {"city": "Amherst", "review_count": 2, "name": "Fancy Fingers Nail & Skin Care Salon", "neighborhoods": [], "url": "http://www.yelp.com/biz/fancy-fingers-nail-and-skin-care-salon-amherst", "type": "business", "business_id": "Bht_AEe9C-6rr-5sx7-8bA", "full_address": "835 Main St\nAmherst, MA 01002", "latitude": 42.376415, "state": "MA", "longitude": -72.495881, "stars": 4.5, "schools": ["University of Massachusetts - Amherst"], "open": true, "categories": [], "photo_url": "http://s3-media1.ak.yelpcdn.com/assets/2/www/img/924a6444ca6c/gfx/blank_biz_medium.gif"}, {"city": "Amherst", "review_count": 84, "name": "Hangar Pub & Grill", "neighborhoods": [], "url": "http://www.yelp.com/biz/hangar-pub-and-grill-amherst", "type": "business", "business_id": "V63CGQ96PTNlz0xu3SIMtA", "full_address": "55 University Dr.\nAmherst, MA 01004", "latitude": 42.372032, "state": "MA", "longitude": -72.533529, "stars": 4.5, "schools": ["University of Massachusetts - Amherst"], "open": true, "categories": ["Pubs", "Bars", "American (Traditional)", "Nightlife", "Restaurants"], "photo_url": "http://s3-media1.ak.yelpcdn.com/bphoto/aPw3L-3LTyH0T5ZQEPD6TA/ms.jpg"}, {"city": "Hadley", "review_count": 13, "name": "Cinemark", "neighborhoods": [], "url": "http://www.yelp.com/biz/cinemark-hadley", "type": "business", "business_id": "sYkhl-syFQ7ed0U8AZfpMg", "full_address": "367 Russell St\nHadley, MA 01035", "latitude": 42.3563676, "state": "MA", "longitude": -72.5478422, "stars": 3.5, "schools": ["University of Massachusetts - Amherst"], "open": true, "categories": ["Arts & Entertainment", "Cinema"], "photo_url": "http://s3-media4.ak.yelpcdn.com/bphoto/V9ih6h-M4dhatsJCTlXdyA/ms.jpg"}, {"city": "Hadley", "review_count": 2, "name": "Zoots Dry Cleaning", "neighborhoods": [], "url": "http://www.yelp.com/biz/zoots-dry-cleaning-hadley", "type": "business", "business_id": "Xq9D4UfBW5DLwSb7YorRQQ", "full_address": "440 Russell St\nHadley, MA 01035", "latitude": 42.3644034, "state": "MA", "longitude": -72.5378182, "stars": 3.5, "schools": ["University of Massachusetts - Amherst"], "open": true, "categories": ["Local Services", "Dry Cleaning & Laundry"], "photo_url": "http://s3-media1.ak.yelpcdn.com/assets/2/www/img/924a6444ca6c/gfx/blank_biz_medium.gif"}, {"city": "Amherst", "review_count": 4, "name": "Amherst Inn", "neighborhoods": [], "url": "http://www.yelp.com/biz/amherst-inn-amherst-4", "type": "business", "business_id": "6t7QHGG827TO5hDMSGDzug", "full_address": "257 Main St\nAmherst, MA 01002", "latitude": 42.3755219, "state": "MA", "longitude": -72.514722, "stars": 3.5, "schools": ["University of Massachusetts - Amherst"], "open": true, "categories": ["Hotels & Travel", "Bed & Breakfast"], "photo_url": "http://s3-media3.ak.yelpcdn.com/bphoto/G9GSqJVFYdjx1IpoavaOSw/ms.jpg"}, {"city": "Hadley", "review_count": 3, "name": "McDonalds", "neighborhoods": [], "url": "http://www.yelp.com/biz/mcdonalds-hadley", "type": "business", "business_id": "0p8H5orIBw7Ba-a4czpzhA", "full_address": "377 Russell St\nHadley, MA 01035", "latitude": 42.3593319, "state": "MA", "longitude": -72.5476477, "stars": 2.0, "schools": ["University of Massachusetts - Amherst"], "open": true, "categories": [], "photo_url": "http://s3-media1.ak.yelpcdn.com/assets/2/www/img/924a6444ca6c/gfx/blank_biz_medium.gif"}, {"city": "Amherst", "review_count": 3, "name": "Mom's Tattoo Studio", "neighborhoods": [], "url": "http://www.yelp.com/biz/moms-tattoo-studio-amherst", "type": "business", "business_id": "kxm7ViD2p6oxgau0iNiS-w", "full_address": "15 E Pleasant St\nSte 2\nAmherst, MA 01002", "latitude": 42.3797333, "state": "MA", "longitude": -72.5195534, "stars": 2.5, "schools": ["University of Massachusetts - Amherst"], "open": true, "categories": ["Tattoo", "Beauty and Spas"], "photo_url": "http://s3-media1.ak.yelpcdn.com/assets/2/www/img/924a6444ca6c/gfx/blank_biz_medium.gif"}, {"city": "Amherst", "review_count": 15, "name": "Thai Corner", "neighborhoods": [], "url": "http://www.yelp.com/biz/thai-corner-amherst", "type": "business", "business_id": "0zhKgVmSsCVoFUY54tDibw", "full_address": "31 Boltwood Walk\nAmherst, MA 01002", "latitude": 42.3760829, "state": "MA", "longitude": -72.5193493, "stars": 2.0, "schools": ["University of Massachusetts - Amherst"], "open": true, "categories": ["Thai", "Restaurants"], "photo_url": "http://s3-media1.ak.yelpcdn.com/assets/2/www/img/924a6444ca6c/gfx/blank_biz_medium.gif"}, {"city": "Hadley", "review_count": 2, "name": "Subway", "neighborhoods": [], "url": "http://www.yelp.com/biz/subway-hadley", "type": "business", "business_id": "ohN09D6g0N0jd6Jc8uQntA", "full_address": "337 Russell St\nHadley, MA 01035", "latitude": 42.355975, "state": "MA", "longitude": -72.554094, "stars": 1.5, "schools": ["University of Massachusetts - Amherst"], "open": true, "categories": ["Sandwiches", "Restaurants"], "photo_url": "http://s3-media1.ak.yelpcdn.com/assets/2/www/img/924a6444ca6c/gfx/blank_biz_medium.gif"}, {"city": "Amherst", "review_count": 2, "name": "Golden Booty Tanning", "neighborhoods": [], "url": "http://www.yelp.com/biz/golden-booty-tanning-amherst", "type": "business", "business_id": "4chDWs-NneRmm-07Nx-AMg", "full_address": "New Market Center\n6 University Dr\nAmherst, MA 01002", "latitude": 42.37244, "state": "MA", "longitude": -72.532811, "stars": 2.5, "schools": ["University of Massachusetts - Amherst"], "open": true, "categories": ["Tanning", "Beauty and Spas"], "photo_url": "http://s3-media1.ak.yelpcdn.com/bphoto/3e9XAzP5Bt-4WEIv25AJ0g/ms.jpg"}, {"city": "Amherst", "review_count": 2, "name": "PeoplesBank", "neighborhoods": [], "url": "http://www.yelp.com/biz/peoplesbank-amherst", "type": "business", "business_id": "gEe6HdLG4Z5F5gjVkTs9VA", "full_address": "56 Amity St\nAmherst, MA 01002", "latitude": 42.3757859, "state": "MA", "longitude": -72.5214175, "stars": 3.5, "schools": ["University of Massachusetts - Amherst"], "open": true, "categories": ["Banks & Credit Unions", "Financial Services"], "photo_url": "http://s3-media2.ak.yelpcdn.com/bphoto/allf_t7XuUOt7JpvepcBqQ/ms.jpg"}, {"city": "Hadley", "review_count": 2, "name": "Bed, Bath and Beyond", "neighborhoods": [], "url": "http://www.yelp.com/biz/bed-bath-and-beyond-hadley", "type": "business", "business_id": "zLUnxFzwPN9A5ZP87SGaTw", "full_address": "337 Russell Street\nHadley, MA 01035", "latitude": 42.3562652, "state": "MA", "longitude": -72.553883, "stars": 4.0, "schools": ["University of Massachusetts - Amherst"], "open": true, "categories": ["Interior Design", "Home Services"], "photo_url": "http://s3-media1.ak.yelpcdn.com/bphoto/E6xzZ-bR4DIf8I04ZMk3Lg/ms.jpg"}, {"city": "Amherst", "review_count": 38, "name": "Amherst Chinese Food", "neighborhoods": [], "url": "http://www.yelp.com/biz/amherst-chinese-food-amherst", "type": "business", "business_id": "y0HShkC69tyeSU-Ej4jxtw", "full_address": "62 Main St\nAmherst, MA 01002", "latitude": 42.3757152, "state": "MA", "longitude": -72.5190396, "stars": 4.0, "schools": ["University of Massachusetts - Amherst"], "open": true, "categories": ["Chinese", "Restaurants"], "photo_url": "http://s3-media4.ak.yelpcdn.com/bphoto/tsnpLwuzKvtR_a247CbKag/ms.jpg"}, {"city": "Hadley", "review_count": 5, "name": "Planet Fitness", "neighborhoods": [], "url": "http://www.yelp.com/biz/planet-fitness-hadley", "type": "business", "business_id": "xaSUhHGkBBAjolDEuIXgPQ", "full_address": "335 Russell St\nHadley, MA 01035", "latitude": 42.3560909, "state": "MA", "longitude": -72.5542613, "stars": 3.5, "schools": ["University of Massachusetts - Amherst"], "open": true, "categories": ["Active Life", "Gyms", "Fitness & Instruction"], "photo_url": "http://s3-media4.ak.yelpcdn.com/bphoto/ktwj-w87UjHGkq6fvdPHsQ/ms.jpg"}, {"city": "Amherst", "review_count": 3, "name": "Latinos", "neighborhoods": [], "url": "http://www.yelp.com/biz/latinos-amherst-2", "type": "business", "business_id": "vq6sVhb8b7EOxUbNTCnfOQ", "full_address": "460 West St\nAmherst, MA 01002", "latitude": 42.3406117, "state": "MA", "longitude": -72.5197494, "stars": 3.5, "schools": ["University of Massachusetts - Amherst"], "open": true, "categories": ["Latin American", "Caribbean", "Restaurants"], "photo_url": "http://s3-media1.ak.yelpcdn.com/assets/2/www/img/924a6444ca6c/gfx/blank_biz_medium.gif"}, {"city": "Hadley", "review_count": 3, "name": "The Pilates Studio", "neighborhoods": [], "url": "http://www.yelp.com/biz/the-pilates-studio-hadley", "type": "business", "business_id": "3X_rVEwLz4mnto10U-oz5Q", "full_address": "104 Russell St\n2nd Fl\nHadley, MA 01035", "latitude": 42.3419762, "state": "MA", "longitude": -72.595381, "stars": 5.0, "schools": ["University of Massachusetts - Amherst"], "open": true, "categories": ["Active Life", "Pilates", "Fitness & Instruction"], "photo_url": "http://s3-media3.ak.yelpcdn.com/bphoto/r_3hTj8sKeVV6dtgunD-_A/ms.jpg"}, {"city": "Hadley", "review_count": 6, "name": "Gregory's Pastry Shop", "neighborhoods": [], "url": "http://www.yelp.com/biz/gregorys-pastry-shop-hadley", "type": "business", "business_id": "bLXi6BOXI5esl1xoN7EvoA", "full_address": "206 Russell St\n#4\nHadley, MA 01035", "latitude": 42.3445618, "state": "MA", "longitude": -72.5778732, "stars": 5.0, "schools": ["University of Massachusetts - Amherst"], "open": true, "categories": ["Food", "Bakeries", "Desserts"], "photo_url": "http://s3-media3.ak.yelpcdn.com/bphoto/ryZLMYRyhF_lruKKyffWwg/ms.jpg"}, {"city": "Sunderland", "review_count": 2, "name": "RJs Grub", "neighborhoods": [], "url": "http://www.yelp.com/biz/rjs-grub-sunderland", "type": "business", "business_id": "W2Ykx9-dUYNp1tC_Km4Bbw", "full_address": "330 Amherst Rd\nSunderland, MA 01375", "latitude": 42.4500095, "state": "MA", "longitude": -72.5604967, "stars": 2.5, "schools": ["University of Massachusetts - Amherst"], "open": true, "categories": ["Barbeque", "Restaurants"], "photo_url": "http://s3-media1.ak.yelpcdn.com/assets/2/www/img/924a6444ca6c/gfx/blank_biz_medium.gif"}, {"city": "Hadley", "review_count": 5, "name": "Wendy's", "neighborhoods": [], "url": "http://www.yelp.com/biz/wendys-hadley", "type": "business", "business_id": "nF8R1_vtuVntHLpUN3UoVg", "full_address": "376 Russell St\nHadley, MA 01035", "latitude": 42.3591159, "state": "MA", "longitude": -72.548555, "stars": 2.0, "schools": ["University of Massachusetts - Amherst"], "open": true, "categories": ["Fast Food", "Restaurants"], "photo_url": "http://s3-media1.ak.yelpcdn.com/assets/2/www/img/924a6444ca6c/gfx/blank_biz_medium.gif"}, {"city": "Hadley", "review_count": 2, "name": "Hadley Garden Center", "neighborhoods": [], "url": "http://www.yelp.com/biz/hadley-garden-center-hadley", "type": "business", "business_id": "uAjMYZ0O0RAwxj3a2A7o0A", "full_address": "285 Russell St\nHadley, MA 01035", "latitude": 42.3506819, "state": "MA", "longitude": -72.5650934, "stars": 4.0, "schools": ["University of Massachusetts - Amherst"], "open": true, "categories": [], "photo_url": "http://s3-media1.ak.yelpcdn.com/assets/2/www/img/924a6444ca6c/gfx/blank_biz_medium.gif"}, {"city": "Hadley", "review_count": 12, "name": "Wing Wong", "neighborhoods": [], "url": "http://www.yelp.com/biz/wing-wong-hadley", "type": "business", "business_id": "C7SLHJ0GY_cnhNqDM2jSGw", "full_address": "206 Russel St\nHadley, MA 01035", "latitude": 42.344769, "state": "MA", "longitude": -72.577985, "stars": 3.5, "schools": ["University of Massachusetts - Amherst"], "open": true, "categories": ["Chinese", "Restaurants"], "photo_url": "http://s3-media2.ak.yelpcdn.com/bphoto/RY3L_v3AJwuMrD2tL8ZpxA/ms.jpg"}, {"city": "Amherst", "review_count": 3, "name": "Studio E Hair Care and Waxing", "neighborhoods": [], "url": "http://www.yelp.com/biz/studio-e-hair-care-and-waxing-amherst", "type": "business", "business_id": "ebU8qtpevZnLqhhPfaX81Q", "full_address": "9 E Pleasant St\nAmherst, MA 01002", "latitude": 42.379226, "state": "MA", "longitude": -72.518895, "stars": 3.5, "schools": ["University of Massachusetts - Amherst"], "open": true, "categories": ["Hair Salons", "Hair Removal", "Beauty and Spas"], "photo_url": "http://s3-media1.ak.yelpcdn.com/assets/2/www/img/924a6444ca6c/gfx/blank_biz_medium.gif"}, {"city": "Amherst", "review_count": 57, "name": "Moan & Dove", "neighborhoods": [], "url": "http://www.yelp.com/biz/moan-and-dove-amherst", "type": "business", "business_id": "RXjTCrjDGRRlZa4GCMz26Q", "full_address": "460 W St\nAmherst, MA 01003", "latitude": 42.403878, "state": "MA", "longitude": -72.52994, "stars": 4.5, "schools": ["University of Massachusetts - Amherst"], "open": true, "categories": ["Bars", "Nightlife"], "photo_url": "http://s3-media1.ak.yelpcdn.com/bphoto/jopl8FT0nApSYyJndXtzfQ/ms.jpg"}, {"city": "Amherst", "review_count": 2, "name": "Amherst Nurseries", "neighborhoods": [], "url": "http://www.yelp.com/biz/amherst-nurseries-amherst", "type": "business", "business_id": "sa7a1egGMO0OzowySsF73w", "full_address": "199 Belchertown Rd\nAmherst, MA 01002", "latitude": 42.3680865, "state": "MA", "longitude": -72.4948035, "stars": 3.5, "schools": ["University of Massachusetts - Amherst"], "open": true, "categories": ["Shopping", "Nurseries & Gardening", "Home & Garden"], "photo_url": "http://s3-media1.ak.yelpcdn.com/bphoto/WVEDd_HnQeYNA32E8IptAw/ms.jpg"}, {"city": "Amherst", "review_count": 3, "name": "Donatello Italian Pastry Shop", "neighborhoods": [], "url": "http://www.yelp.com/biz/donatello-italian-pastry-shop-amherst", "type": "business", "business_id": "jX5tkA-gcacOGCZ8oZFrDA", "full_address": "362 College St\nAmherst, MA 01002", "latitude": 42.3731183, "state": "MA", "longitude": -72.501599, "stars": 4.0, "schools": ["University of Massachusetts - Amherst"], "open": false, "categories": ["Food", "Bakeries"], "photo_url": "http://s3-media2.ak.yelpcdn.com/bphoto/QgiNTRcslekaHYyvtX9evA/ms.jpg"}, {"city": "Sunderland", "review_count": 4, "name": "Smiarowski Farm Stand", "neighborhoods": [], "url": "http://www.yelp.com/biz/smiarowski-farm-stand-sunderland", "type": "business", "business_id": "G3UQvnx2axEZ_GVF_adM-w", "full_address": "286 River Rd\nSunderland, MA 01375", "latitude": 42.4414866, "state": "MA", "longitude": -72.5830637, "stars": 4.5, "schools": ["University of Massachusetts - Amherst"], "open": true, "categories": ["Specialty Food", "Food", "Fruits & Veggies"], "photo_url": "http://s3-media4.ak.yelpcdn.com/bphoto/bFjM8dfrtLd-VR24Rf_TeQ/ms.jpg"}, {"city": "Amherst", "review_count": 57, "name": "Chez Albert", "neighborhoods": [], "url": "http://www.yelp.com/biz/chez-albert-amherst", "type": "business", "business_id": "HI2j56tbcCIGJv5xa4-jOA", "full_address": "178 N Pleasant St\nAmherst, MA 01002", "latitude": 42.378292, "state": "MA", "longitude": -72.520533, "stars": 4.0, "schools": ["University of Massachusetts - Amherst"], "open": true, "categories": ["French", "Restaurants"], "photo_url": "http://s3-media2.ak.yelpcdn.com/bphoto/Wg8bMJofrJqoM9i_v1EsoA/ms.jpg"}, {"city": "Amherst", "review_count": 9, "name": "Zhang's Kitchen", "neighborhoods": [], "url": "http://www.yelp.com/biz/zhangs-kitchen-amherst", "type": "business", "business_id": "aZ0spgQ-Hfr3j8OLbtQ8kQ", "full_address": "460 West St\nAmherst, MA 01002", "latitude": 42.3410636, "state": "MA", "longitude": -72.5199521, "stars": 2.5, "schools": ["University of Massachusetts - Amherst"], "open": true, "categories": ["Specialty Food", "Ethnic Food", "Food"], "photo_url": "http://s3-media1.ak.yelpcdn.com/assets/2/www/img/924a6444ca6c/gfx/blank_biz_medium.gif"}, {"city": "Amherst", "review_count": 8, "name": "Henion Bakery", "neighborhoods": [], "url": "http://www.yelp.com/biz/henion-bakery-amherst", "type": "business", "business_id": "aJwYBAIxsNKHnrlHnEaQnQ", "full_address": "174 N Pleasant St\nAmherst, MA 01002", "latitude": 42.379493, "state": "MA", "longitude": -72.5200489, "stars": 5.0, "schools": ["University of Massachusetts - Amherst"], "open": true, "categories": ["Food", "Bakeries"], "photo_url": "http://s3-media1.ak.yelpcdn.com/assets/2/www/img/924a6444ca6c/gfx/blank_biz_medium.gif"}, {"city": "Amherst", "review_count": 19, "name": "DP Dough", "neighborhoods": [], "url": "http://www.yelp.com/biz/dp-dough-amherst", "type": "business", "business_id": "cqc7y_8KQgZopip-w3K6nQ", "full_address": "8 Coach Ln\nAmherst, MA 01002", "latitude": 42.339421, "state": "MA", "longitude": -72.515686, "stars": 3.5, "schools": ["University of Massachusetts - Amherst"], "open": true, "categories": ["Sandwiches", "Restaurants"], "photo_url": "http://s3-media1.ak.yelpcdn.com/bphoto/ybq5mbTSCFXB5MCPL19V4Q/ms.jpg"}, {"city": "Amherst", "review_count": 20, "name": "Crazy Noodles", "neighborhoods": [], "url": "http://www.yelp.com/biz/crazy-noodles-amherst", "type": "business", "business_id": "snV8jGHnoVWBNJyRUBJYug", "full_address": "36 Main St\nAmherst, MA 01002", "latitude": 42.3758432, "state": "MA", "longitude": -72.5189978, "stars": 3.5, "schools": ["University of Massachusetts - Amherst"], "open": true, "categories": ["Asian Fusion", "Restaurants"], "photo_url": "http://s3-media4.ak.yelpcdn.com/bphoto/hvLitK27SYXKzUO9U2mJug/ms.jpg"}, {"city": "Amherst", "review_count": 23, "name": "Cushman Market And Cafe", "neighborhoods": [], "url": "http://www.yelp.com/biz/cushman-market-and-cafe-amherst", "type": "business", "business_id": "MQ9PTbD-EFRUxhg0R5kjUw", "full_address": "491 Pine St\nAmherst, MA 01002", "latitude": 42.412616, "state": "MA", "longitude": -72.507933, "stars": 4.0, "schools": ["University of Massachusetts - Amherst"], "open": true, "categories": ["Food", "Breakfast & Brunch", "Coffee & Tea", "Grocery", "Restaurants"], "photo_url": "http://s3-media3.ak.yelpcdn.com/bphoto/6FjSGWn4hRpf_ZB20AS5hg/ms.jpg"}, {"city": "Amherst", "review_count": 3, "name": "Paul's Shoe Repair", "neighborhoods": [], "url": "http://www.yelp.com/biz/pauls-shoe-repair-amherst", "type": "business", "business_id": "5XeAKGGfH7q--cLN_lEJHQ", "full_address": "103 N. Pleasant St.\nAmherst, MA 01002", "latitude": 42.3773836, "state": "MA", "longitude": -72.51999, "stars": 5.0, "schools": ["University of Massachusetts - Amherst"], "open": true, "categories": ["Local Services", "Shoe Repair"], "photo_url": "http://s3-media1.ak.yelpcdn.com/assets/2/www/img/924a6444ca6c/gfx/blank_biz_medium.gif"}, {"city": "Amherst", "review_count": 3, "name": "Fretted Instrument Work Shop", "neighborhoods": [], "url": "http://www.yelp.com/biz/fretted-instrument-work-shop-amherst", "type": "business", "business_id": "B_8DCETx7Wln1x9W2P7dLQ", "full_address": "49 S Pleasant St\nAmherst, MA 01002", "latitude": 42.3749951, "state": "MA", "longitude": -72.5198566, "stars": 2.5, "schools": ["University of Massachusetts - Amherst"], "open": true, "categories": ["Musical Instruments & Teachers", "Shopping"], "photo_url": "http://s3-media1.ak.yelpcdn.com/assets/2/www/img/924a6444ca6c/gfx/blank_biz_medium.gif"}, {"city": "Amherst", "review_count": 4, "name": "The Boulders", "neighborhoods": [], "url": "http://www.yelp.com/biz/the-boulders-amherst", "type": "business", "business_id": "TOPYl1iLjl2PRZA5m-6kiA", "full_address": "156 Brittany Mnr # A\nAmherst, MA 01004", "latitude": 42.3505448, "state": "MA", "longitude": -72.5273729, "stars": 3.5, "schools": ["University of Massachusetts - Amherst"], "open": true, "categories": ["Home Services", "Real Estate", "Apartments"], "photo_url": "http://s3-media1.ak.yelpcdn.com/assets/2/www/img/924a6444ca6c/gfx/blank_biz_medium.gif"}, {"city": "Amherst", "review_count": 13, "name": "Starbucks Coffee", "neighborhoods": [], "url": "http://www.yelp.com/biz/starbucks-coffee-amherst", "type": "business", "business_id": "1WRP-fgtTrsBJ-HMifskqw", "full_address": "71 N Pleasant St\nAmherst, MA 01002", "latitude": 42.3767775, "state": "MA", "longitude": -72.5198604, "stars": 3.0, "schools": ["University of Massachusetts - Amherst"], "open": true, "categories": [], "photo_url": "http://s3-media1.ak.yelpcdn.com/bphoto/LiGTiVWaoeOghzJ9_IUqcQ/ms.jpg"}, {"city": "Amherst", "review_count": 7, "name": "Amherst Farmers Market", "neighborhoods": [], "url": "http://www.yelp.com/biz/amherst-farmers-market-amherst-2", "type": "business", "business_id": "5_q-fa1Kdu7FWTyf1uVg0w", "full_address": "Amherst Town Common\nSpring St between Pleasant St and Boltwood St\nAmherst, MA 01002", "latitude": 42.366667, "state": "MA", "longitude": -72.516667, "stars": 4.0, "schools": ["University of Massachusetts - Amherst"], "open": true, "categories": ["Food", "Farmers Market"], "photo_url": "http://s3-media3.ak.yelpcdn.com/bphoto/o-uRdqhoWK7HVnPLf0lcfg/ms.jpg"}, {"city": "Sunderland", "review_count": 8, "name": "Frontier Pizza Place", "neighborhoods": [], "url": "http://www.yelp.com/biz/frontier-pizza-place-sunderland", "type": "business", "business_id": "YZvXTxzycSpl0thbZbA62Q", "full_address": "283 Amherst Rd\nSunderland, MA 01375", "latitude": 42.452004, "state": "MA", "longitude": -72.5634007, "stars": 3.5, "schools": ["University of Massachusetts - Amherst"], "open": true, "categories": ["Pizza", "Restaurants"], "photo_url": "http://s3-media2.ak.yelpcdn.com/bphoto/bRpCBgRHsJrY_hojQ5VK7A/ms.jpg"}, {"city": "Amherst", "review_count": 17, "name": "Arigato Sushi", "neighborhoods": [], "url": "http://www.yelp.com/biz/arigato-sushi-amherst", "type": "business", "business_id": "bzP1utyRGu6ywPric5UmGg", "full_address": "11 N Pleasant St\nAmherst, MA 01002", "latitude": 42.377084, "state": "MA", "longitude": -72.5198837, "stars": 2.5, "schools": ["University of Massachusetts - Amherst"], "open": true, "categories": ["Korean", "Sushi Bars", "Japanese", "Restaurants"], "photo_url": "http://s3-media4.ak.yelpcdn.com/bphoto/pmJY-gSOSVLYZv3gEJP6wQ/ms.jpg"}, {"city": "Hadley", "review_count": 33, "name": "Flayvors of Cook Farm", "neighborhoods": [], "url": "http://www.yelp.com/biz/flayvors-of-cook-farm-hadley", "type": "business", "business_id": "kiBxQwgpaZ0HpILQE7Fevw", "full_address": "129 S Maple St\nHadley, MA 01035", "latitude": 42.3284687, "state": "MA", "longitude": -72.5495288, "stars": 4.5, "schools": ["University of Massachusetts - Amherst"], "open": true, "categories": ["Food", "Ice Cream & Frozen Yogurt", "Specialty Food"], "photo_url": "http://s3-media4.ak.yelpcdn.com/bphoto/dNVBT_2B5y4avtCxMU7AwQ/ms.jpg"}, {"city": "Hadley", "review_count": 6, "name": "Buffalo Wild Wings", "neighborhoods": [], "url": "http://www.yelp.com/biz/buffalo-wild-wings-hadley", "type": "business", "business_id": "BgyCo15G_229xfSmNtPtXg", "full_address": "367 Russell St\nHadley, MA 01035", "latitude": 42.357072, "state": "MA", "longitude": -72.5475266, "stars": 3.0, "schools": ["University of Massachusetts - Amherst"], "open": false, "categories": ["Fast Food", "Restaurants"], "photo_url": "http://s3-media2.ak.yelpcdn.com/bphoto/JDKN7QjzC-bKySWgd8Jvtg/ms.jpg"}, {"city": "Hadley", "review_count": 2, "name": "Wildwater Outfitters", "neighborhoods": [], "url": "http://www.yelp.com/biz/wildwater-outfitters-hadley", "type": "business", "business_id": "3IBqRg-FEdWq76orVrj-9g", "full_address": "451 Russell St\nHadley, MA 01035", "latitude": 42.3639294, "state": "MA", "longitude": -72.5384622, "stars": 4.5, "schools": ["University of Massachusetts - Amherst"], "open": true, "categories": ["Sporting Goods", "Shopping", "Outdoor Gear"], "photo_url": "http://s3-media1.ak.yelpcdn.com/assets/2/www/img/924a6444ca6c/gfx/blank_biz_medium.gif"}, {"city": "Amherst", "review_count": 2, "name": "Hot Ciabatta", "neighborhoods": [], "url": "http://www.yelp.com/biz/hot-ciabatta-amherst-2", "type": "business", "business_id": "7W_8BUSIx0xe0jwd3e0bIw", "full_address": "1 E Pleasant St\nAmherst, MA 01002", "latitude": 42.3792341, "state": "MA", "longitude": -72.5197492, "stars": 2.5, "schools": ["University of Massachusetts - Amherst"], "open": true, "categories": ["Food", "Italian", "Sandwiches", "Restaurants"], "photo_url": "http://s3-media3.ak.yelpcdn.com/bphoto/xHYrnGKROmTX3r6-KojAKQ/ms.jpg"}, {"city": "Amherst", "review_count": 6, "name": "Amherst Tire Center", "neighborhoods": [], "url": "http://www.yelp.com/biz/amherst-tire-center-amherst", "type": "business", "business_id": "47S_Pz6gYMGYffTYKk_W5g", "full_address": "292 College St\nAmherst, MA 01002", "latitude": 42.3729988, "state": "MA", "longitude": -72.5047774, "stars": 4.0, "schools": ["University of Massachusetts - Amherst"], "open": true, "categories": ["Tires", "Automotive", "Auto Parts & Supplies"], "photo_url": "http://s3-media1.ak.yelpcdn.com/assets/2/www/img/924a6444ca6c/gfx/blank_biz_medium.gif"}, {"city": "Hadley", "review_count": 40, "name": "Route 9 Diner", "neighborhoods": [], "url": "http://www.yelp.com/biz/route-9-diner-hadley", "type": "business", "business_id": "_e9wgMUWkkx_vrFt8Ym6SA", "full_address": "458 Russell St\nSte 11\nHadley, MA 01035", "latitude": 42.3651651, "state": "MA", "longitude": -72.536654, "stars": 3.5, "schools": ["University of Massachusetts - Amherst"], "open": true, "categories": ["Diners", "Restaurants"], "photo_url": "http://s3-media3.ak.yelpcdn.com/bphoto/o_gmiYIV0oDs-K8dCAOarw/ms.jpg"}, {"city": "Hadley", "review_count": 2, "name": "Pizza Hut", "neighborhoods": [], "url": "http://www.yelp.com/biz/pizza-hut-hadley", "type": "business", "business_id": "RheZUFyesPne28fwAtCVCw", "full_address": "424 Russell St\nHadley, MA 01035", "latitude": 42.3634047, "state": "MA", "longitude": -72.5398457, "stars": 2.5, "schools": ["University of Massachusetts - Amherst"], "open": true, "categories": ["Pizza", "Restaurants"], "photo_url": "http://s3-media1.ak.yelpcdn.com/assets/2/www/img/924a6444ca6c/gfx/blank_biz_medium.gif"}, {"city": "Amherst", "review_count": 3, "name": "Salon Divine", "neighborhoods": [], "url": "http://www.yelp.com/biz/salon-divine-amherst", "type": "business", "business_id": "cdDMyyoOUpJif9MwmLV61g", "full_address": "189 N Pleasant St\nAmherst, MA 01002", "latitude": 42.3795603, "state": "MA", "longitude": -72.5200581, "stars": 3.5, "schools": ["University of Massachusetts - Amherst"], "open": false, "categories": ["Hair Salons", "Beauty and Spas"], "photo_url": "http://s3-media2.ak.yelpcdn.com/bphoto/cZwbMldmVd8FiCvz78GOmg/ms.jpg"}, {"city": "Amherst", "review_count": 3, "name": "Michael's Billiards & Sports Bar", "neighborhoods": [], "url": "http://www.yelp.com/biz/michaels-billiards-and-sports-bar-amherst", "type": "business", "business_id": "RCxVuW6VvrynfUAacGTiYg", "full_address": "20 Belchertown Rd\nAmherst, MA 01002", "latitude": 42.373099, "state": "MA", "longitude": -72.499279, "stars": 2.5, "schools": ["University of Massachusetts - Amherst"], "open": true, "categories": [], "photo_url": "http://s3-media1.ak.yelpcdn.com/assets/2/www/img/924a6444ca6c/gfx/blank_biz_medium.gif"}, {"city": "Amherst", "review_count": 15, "name": "The Pub", "neighborhoods": [], "url": "http://www.yelp.com/biz/the-pub-amherst", "type": "business", "business_id": "rRmH0Shfb8hj_Tk0zFEOLg", "full_address": "15 East Pleasant St\nAmherst, MA 01002", "latitude": 42.3797333, "state": "MA", "longitude": -72.5195534, "stars": 3.0, "schools": ["University of Massachusetts - Amherst"], "open": true, "categories": ["Bars", "Nightlife", "Dance Clubs", "Restaurants"], "photo_url": "http://s3-media2.ak.yelpcdn.com/bphoto/9-remc8YTDQ9dwV97NXYFg/ms.jpg"}, {"city": "Hadley", "review_count": 3, "name": "Walmart", "neighborhoods": [], "url": "http://www.yelp.com/biz/walmart-hadley", "type": "business", "business_id": "Ea1zCmp6aZMXcIDOT7-7cA", "full_address": "337 Russell St\nHadley, MA 01035", "latitude": 42.3564396, "state": "MA", "longitude": -72.5533892, "stars": 3.5, "schools": ["University of Massachusetts - Amherst"], "open": true, "categories": ["Department Stores", "Grocery", "Fashion", "Shopping", "Food", "Mobile Phones"], "photo_url": "http://s3-media2.ak.yelpcdn.com/bphoto/mljSVVi9o2bQMDBMs91ZmQ/ms.jpg"}, {"city": "Hadley", "review_count": 3, "name": "Dollar Tree", "neighborhoods": [], "url": "http://www.yelp.com/biz/dollar-tree-hadley", "type": "business", "business_id": "5x-Xv-78fQ1-GAFFRX4sfg", "full_address": "458 Russell St\nHadley, MA 01035", "latitude": 42.3649626, "state": "MA", "longitude": -72.5367327, "stars": 4.0, "schools": ["University of Massachusetts - Amherst"], "open": true, "categories": [], "photo_url": "http://s3-media4.ak.yelpcdn.com/bphoto/oOvadycAFOk3gg3iYQQcOg/ms.jpg"}, {"city": "Amherst", "review_count": 2, "name": "Newmarket  Dentistry", "neighborhoods": [], "url": "http://www.yelp.com/biz/newmarket-dentistry-amherst", "type": "business", "business_id": "atfGEO5rudh92GJbQ7GRcg", "full_address": "28 University Dr\nAmherst, MA 01002", "latitude": 42.3727023, "state": "MA", "longitude": -72.5329258, "stars": 3.0, "schools": ["University of Massachusetts - Amherst"], "open": true, "categories": ["Dentists", "Cosmetic Dentists", "Health and Medical", "General Dentistry"], "photo_url": "http://s3-media1.ak.yelpcdn.com/bphoto/KM3vjzXdo0T6fZMBBJoC8A/ms.jpg"}, {"city": "Amherst", "review_count": 3, "name": "College Street Motors", "neighborhoods": [], "url": "http://www.yelp.com/biz/college-street-motors-amherst", "type": "business", "business_id": "doLdEB3JJHmRMeNks-F_9w", "full_address": "260 College St\nAmherst, MA 01002", "latitude": 42.3730326, "state": "MA", "longitude": -72.5096192, "stars": 5.0, "schools": ["University of Massachusetts - Amherst"], "open": true, "categories": ["Auto Repair", "Automotive"], "photo_url": "http://s3-media4.ak.yelpcdn.com/bphoto/lR-UuZ42e1k0UqCEXILHGg/ms.jpg"}, {"city": "Hadley", "review_count": 4, "name": "Panera Bread", "neighborhoods": [], "url": "http://www.yelp.com/biz/panera-bread-hadley", "type": "business", "business_id": "hwCthMrt77pywJA7Q6T_9Q", "full_address": "353 Russell St\nHadley, MA 01035", "latitude": 42.357902, "state": "MA", "longitude": -72.550471, "stars": 3.5, "schools": ["University of Massachusetts - Amherst"], "open": true, "categories": ["Food", "Bakeries", "Sandwiches", "Restaurants"], "photo_url": "http://s3-media1.ak.yelpcdn.com/bphoto/kLXxMvhia5Z69mY4z9JNRg/ms.jpg"}, {"city": "Amherst", "review_count": 3, "name": "Baby Berk", "neighborhoods": [], "url": "http://www.yelp.com/biz/baby-berk-amherst", "type": "business", "business_id": "VXua65ANlPYKtEBSmGp6CQ", "full_address": "Umass Campus and Beyond\nAmherst, MA", "latitude": 42.366667, "state": "MA", "longitude": -72.516667, "stars": 4.5, "schools": ["University of Massachusetts - Amherst"], "open": true, "categories": ["Food", "Street Vendors"], "photo_url": "http://s3-media4.ak.yelpcdn.com/bphoto/meNK95iBE3GazL2thMXQvg/ms.jpg"}, {"city": "Amherst", "review_count": 5, "name": "Pioneer Valley Pizza", "neighborhoods": [], "url": "http://www.yelp.com/biz/pioneer-valley-pizza-amherst", "type": "business", "business_id": "cC8CA5khThM31VaCZRw7ZQ", "full_address": "20 Belchertown Rd\nAmherst, MA 01002", "latitude": 42.352214, "state": "MA", "longitude": -72.472029, "stars": 3.5, "schools": ["University of Massachusetts - Amherst"], "open": true, "categories": ["Pizza", "Restaurants"], "photo_url": "http://s3-media1.ak.yelpcdn.com/assets/2/www/img/924a6444ca6c/gfx/blank_biz_medium.gif"}, {"city": "Amherst", "review_count": 3, "name": "Amherst Wines & Spirits", "neighborhoods": [], "url": "http://www.yelp.com/biz/amherst-wines-and-spirits-amherst", "type": "business", "business_id": "atnFVYafrD79Zdsh8AWphQ", "full_address": "233 N Pleasant St\nAmherst, MA 01002", "latitude": 42.379039, "state": "MA", "longitude": -72.519391, "stars": 5.0, "schools": ["University of Massachusetts - Amherst"], "open": true, "categories": ["Food", "Beer, Wine & Spirits"], "photo_url": "http://s3-media1.ak.yelpcdn.com/bphoto/5eYrQfz--n8mas2_KfCp7Q/ms.jpg"}, {"city": "Amherst", "review_count": 8, "name": "Black Sheep Deli", "neighborhoods": [], "url": "http://www.yelp.com/biz/black-sheep-deli-amherst", "type": "business", "business_id": "rw1OFTgmUHaBLK5EdftUIA", "full_address": "79 Main St\nAmherst, MA 01002", "latitude": 42.3756901, "state": "MA", "longitude": -72.5181649, "stars": 4.0, "schools": ["University of Massachusetts - Amherst"], "open": true, "categories": ["Delis", "Restaurants"], "photo_url": "http://s3-media1.ak.yelpcdn.com/assets/2/www/img/924a6444ca6c/gfx/blank_biz_medium.gif"}, {"city": "Amherst", "review_count": 33, "name": "LimeRed Teahouse", "neighborhoods": [], "url": "http://www.yelp.com/biz/limered-teahouse-amherst", "type": "business", "business_id": "eYzNsTc9BXKIPP7FXx5kjg", "full_address": "50 Main St\nAmherst, MA 01002", "latitude": 42.3758663, "state": "MA", "longitude": -72.5191493, "stars": 3.5, "schools": ["University of Massachusetts - Amherst"], "open": true, "categories": ["Food", "Coffee & Tea", "Event Planning & Services", "Caterers"], "photo_url": "http://s3-media4.ak.yelpcdn.com/bphoto/X2JsDh2xjIny4F_YijSahw/ms.jpg"}, {"city": "Amherst", "review_count": 79, "name": "Bueno y Sano", "neighborhoods": [], "url": "http://www.yelp.com/biz/bueno-y-sano-amherst", "type": "business", "business_id": "i_N21-BF8Lj3ejHEldeWqA", "full_address": "1 Boltwood Walk\nAmherst, MA 01002", "latitude": 42.375999, "state": "MA", "longitude": -72.518606, "stars": 4.0, "schools": ["University of Massachusetts - Amherst"], "open": true, "categories": ["Mexican", "Restaurants"], "photo_url": "http://s3-media3.ak.yelpcdn.com/bphoto/OD0fltdoVf-fcFPNWAamiA/ms.jpg"}, {"city": "Amherst", "review_count": 4, "name": "Amherst Farm Winery", "neighborhoods": [], "url": "http://www.yelp.com/biz/amherst-farm-winery-amherst", "type": "business", "business_id": "WABk1j4RVf3TZMUSj_lnMw", "full_address": "529 Belchertown Rd\nAmherst, MA 01002", "latitude": 42.358683, "state": "MA", "longitude": -72.485733, "stars": 3.0, "schools": ["University of Massachusetts - Amherst"], "open": true, "categories": ["Food", "Arts & Entertainment", "Wineries"], "photo_url": "http://s3-media3.ak.yelpcdn.com/bphoto/-FiVMhbijMd0mpF20LxiVQ/ms.jpg"}, {"city": "Amherst", "review_count": 12, "name": "Paradise of India", "neighborhoods": [], "url": "http://www.yelp.com/biz/paradise-of-india-amherst", "type": "business", "business_id": "bUOQz09aRLhDVV5Lg35o6w", "full_address": "87 Main St\nAmherst, MA 01002", "latitude": 42.375688, "state": "MA", "longitude": -72.5179852, "stars": 3.0, "schools": ["University of Massachusetts - Amherst"], "open": true, "categories": ["Indian", "Restaurants"], "photo_url": "http://s3-media1.ak.yelpcdn.com/assets/2/www/img/924a6444ca6c/gfx/blank_biz_medium.gif"}, {"city": "Amherst", "review_count": 3, "name": "Cvs Pharmacy", "neighborhoods": [], "url": "http://www.yelp.com/biz/cvs-pharmacy-amherst", "type": "business", "business_id": "SckGC6L6WimyM1JuwYEazw", "full_address": "76 N Pleasant St\nAmherst, MA 01002", "latitude": 42.3768631, "state": "MA", "longitude": -72.5201873, "stars": 2.0, "schools": ["University of Massachusetts - Amherst"], "open": true, "categories": ["Shopping", "Drugstores"], "photo_url": "http://s3-media1.ak.yelpcdn.com/assets/2/www/img/924a6444ca6c/gfx/blank_biz_medium.gif"}, {"city": "Hadley", "review_count": 2, "name": "Gohyang Singing Rooms", "neighborhoods": [], "url": "http://www.yelp.com/biz/gohyang-singing-rooms-hadley", "type": "business", "business_id": "RMWbG4ep_Zewr5pha0_nHQ", "full_address": "115 Russell St\nHadley, MA 01035", "latitude": 42.341923, "state": "MA", "longitude": -72.593799, "stars": 4.5, "schools": ["University of Massachusetts - Amherst"], "open": true, "categories": [], "photo_url": "http://s3-media4.ak.yelpcdn.com/bphoto/TXSfGyXKF9ebC-9ngFMcrg/ms.jpg"}, {"city": "Hadley", "review_count": 12, "name": "Stables Sandwich Shoppe", "neighborhoods": [], "url": "http://www.yelp.com/biz/stables-sandwich-shoppe-hadley", "type": "business", "business_id": "ekkrn8-splkvfLSeQBC2cw", "full_address": "326 Russell St\nHadley, MA 01035", "latitude": 42.3556018, "state": "MA", "longitude": -72.55525, "stars": 4.0, "schools": ["University of Massachusetts - Amherst"], "open": true, "categories": ["Breakfast & Brunch", "American (Traditional)", "Restaurants"], "photo_url": "http://s3-media3.ak.yelpcdn.com/bphoto/anPk4dYUjggZQVX3nU9Beg/ms.jpg"}, {"city": "Amherst", "review_count": 3, "name": "J. Gumbo's", "neighborhoods": [], "url": "http://www.yelp.com/biz/j-gumbos-amherst", "type": "business", "business_id": "QptaeWyVZICXodBFkvdLww", "full_address": "19 N Pleasant St\nAmherst, MA 01002", "latitude": 42.376065, "state": "MA", "longitude": -72.519609, "stars": 3.5, "schools": ["University of Massachusetts - Amherst"], "open": true, "categories": ["Cajun/Creole", "Restaurants"], "photo_url": "http://s3-media1.ak.yelpcdn.com/assets/2/www/img/924a6444ca6c/gfx/blank_biz_medium.gif"}, {"city": "Amherst", "review_count": 3, "name": "Rolling Green - Amherst", "neighborhoods": [], "url": "http://www.yelp.com/biz/rolling-green-amherst-amherst", "type": "business", "business_id": "oUcSEppn7vWLWBNOghx9JA", "full_address": "1 A Rolling Green Dr\nAmherst, MA 01002", "latitude": 42.361733, "state": "MA", "longitude": -72.4877147, "stars": 4.5, "schools": ["University of Massachusetts - Amherst"], "open": true, "categories": ["Home Services", "Real Estate", "Apartments"], "photo_url": "http://s3-media4.ak.yelpcdn.com/bphoto/pkVuFnm0CzXE7Gb4qQ9FDQ/ms.jpg"}, {"city": "Hadley", "review_count": 4, "name": "Valley Bike and Ski Werks", "neighborhoods": [], "url": "http://www.yelp.com/biz/valley-bike-and-ski-werks-hadley", "type": "business", "business_id": "AUSMuLQ8xBREb8WpanLz1Q", "full_address": "173 Russell St\nHadley, MA 01035", "latitude": 42.3425602, "state": "MA", "longitude": -72.5835219, "stars": 5.0, "schools": ["University of Massachusetts - Amherst"], "open": true, "categories": ["Active Life"], "photo_url": "http://s3-media2.ak.yelpcdn.com/bphoto/hP6BCNHawb3JhXM90tznlw/ms.jpg"}, {"city": "Amherst", "review_count": 7, "name": "McMurphy's Uptown Tavern", "neighborhoods": [], "url": "http://www.yelp.com/biz/mcmurphys-uptown-tavern-amherst", "type": "business", "business_id": "JkdZsw_ASWWPYIsA2W5fsQ", "full_address": "37 N Pleasant St\nAmherst, MA 01002", "latitude": 42.376259, "state": "MA", "longitude": -72.519446, "stars": 3.0, "schools": ["University of Massachusetts - Amherst"], "open": true, "categories": ["Bars", "Nightlife"], "photo_url": "http://s3-media3.ak.yelpcdn.com/bphoto/0a7Q5PkUkC1Uzf43xi2pgw/ms.jpg"}, {"city": "Amherst", "review_count": 3, "name": "Pinocchio Italian Restaurant", "neighborhoods": [], "url": "http://www.yelp.com/biz/pinocchio-italian-restaurant-amherst", "type": "business", "business_id": "7xRhic2Jm9VnM9dZ1F-KJw", "full_address": "30 Boltwood Walk\nAmherst, MA 01002", "latitude": 42.376276, "state": "MA", "longitude": -72.518136, "stars": 4.0, "schools": ["University of Massachusetts - Amherst"], "open": false, "categories": ["Restaurants"], "photo_url": "http://s3-media1.ak.yelpcdn.com/assets/2/www/img/924a6444ca6c/gfx/blank_biz_medium.gif"}, {"city": "Amherst", "review_count": 8, "name": "Matt's Barber Shop", "neighborhoods": [], "url": "http://www.yelp.com/biz/matts-barber-shop-amherst", "type": "business", "business_id": "iPTU21Sdija7LxJ7vfwSng", "full_address": "59 Boltwood Walk\nAmherst, MA 01002", "latitude": 42.3758445, "state": "MA", "longitude": -72.5182979, "stars": 4.5, "schools": ["University of Massachusetts - Amherst"], "open": true, "categories": ["Barbers", "Beauty and Spas"], "photo_url": "http://s3-media4.ak.yelpcdn.com/bphoto/zYbJjN48DO1gGYBRmV6uHg/ms.jpg"}, {"city": "Hadley", "review_count": 3, "name": "Arif's Tailoring Shop", "neighborhoods": [], "url": "http://www.yelp.com/biz/arifs-tailoring-shop-hadley", "type": "business", "business_id": "CYgWv0-ru5qujLQscQgo4g", "full_address": "10 S Maple St\nHadley, MA 01035", "latitude": 42.3531275, "state": "MA", "longitude": -72.551389, "stars": 4.5, "schools": ["University of Massachusetts - Amherst"], "open": true, "categories": ["Local Services", "Sewing & Alterations"], "photo_url": "http://s3-media1.ak.yelpcdn.com/assets/2/www/img/924a6444ca6c/gfx/blank_biz_medium.gif"}, {"city": "Hadley", "review_count": 6, "name": "Troubadour Books", "neighborhoods": [], "url": "http://www.yelp.com/biz/troubadour-books-hadley", "type": "business", "business_id": "WStrQ_E3PJ3zGhJZXELN6A", "full_address": "47 East St\nHadley, MA 01035", "latitude": 42.3463336, "state": "MA", "longitude": -72.582593, "stars": 4.5, "schools": ["University of Massachusetts - Amherst"], "open": true, "categories": ["Books, Mags, Music and Video", "Shopping", "Bookstores"], "photo_url": "http://s3-media3.ak.yelpcdn.com/bphoto/hDC07E9rBJdA4zBzio8x8Q/ms.jpg"}, {"city": "Amherst", "review_count": 3, "name": "Emily's Amherst Bed & Breakfast", "neighborhoods": [], "url": "http://www.yelp.com/biz/emilys-amherst-bed-and-breakfast-amherst", "type": "business", "business_id": "nRAt8fJnvu10g4QK3e0VUA", "full_address": "71 North Prospect St\nAmherst, MA 01002", "latitude": 42.378329, "state": "MA", "longitude": -72.521868, "stars": 5.0, "schools": ["University of Massachusetts - Amherst"], "open": true, "categories": ["Hotels & Travel", "Bed & Breakfast"], "photo_url": "http://s3-media1.ak.yelpcdn.com/assets/2/www/img/924a6444ca6c/gfx/blank_biz_medium.gif"}, {"city": "Hadley", "review_count": 2, "name": "Valley Inn For Pets", "neighborhoods": [], "url": "http://www.yelp.com/biz/valley-inn-for-pets-hadley", "type": "business", "business_id": "SNnX5GqowAAXr22C3_kHnw", "full_address": "320 Russell St\nHadley, MA 01035", "latitude": 42.3552341, "state": "MA", "longitude": -72.5559907, "stars": 4.0, "schools": ["University of Massachusetts - Amherst"], "open": true, "categories": ["Pet Services", "Pet Boarding/Pet Sitting", "Pets"], "photo_url": "http://s3-media1.ak.yelpcdn.com/assets/2/www/img/924a6444ca6c/gfx/blank_biz_medium.gif"}, {"city": "Amherst", "review_count": 2, "name": "Sheffield Cartage", "neighborhoods": [], "url": "http://www.yelp.com/biz/sheffield-cartage-amherst", "type": "business", "business_id": "zzRe5dyYkWb6weQS4FdSQQ", "full_address": "62 Fearing St\nAmherst, MA 01002", "latitude": 42.3825247, "state": "MA", "longitude": -72.523548, "stars": 1.0, "schools": ["University of Massachusetts - Amherst"], "open": true, "categories": ["Newspapers & Magazines", "Books, Mags, Music and Video", "Shopping"], "photo_url": "http://s3-media1.ak.yelpcdn.com/assets/2/www/img/924a6444ca6c/gfx/blank_biz_medium.gif"}, {"city": "Hadley", "review_count": 4, "name": "Steve Lewis Subaru", "neighborhoods": [], "url": "http://www.yelp.com/biz/steve-lewis-subaru-hadley", "type": "business", "business_id": "JO8KgtiNJBM8FzcoPxKB9Q", "full_address": "315 Russell St\nHadley, MA 01035", "latitude": 42.3546127, "state": "MA", "longitude": -72.5571983, "stars": 2.0, "schools": ["University of Massachusetts - Amherst"], "open": true, "categories": ["Auto Repair", "Automotive", "Auto Parts & Supplies", "Car Dealers"], "photo_url": "http://s3-media2.ak.yelpcdn.com/bphoto/MTiJ8jYCjmw8k9a5yF6M8Q/ms.jpg"}, {"city": "Amherst", "review_count": 38, "name": "Moti Persian Mediterranean Restaurant", "neighborhoods": [], "url": "http://www.yelp.com/biz/moti-persian-mediterranean-restaurant-amherst", "type": "business", "business_id": "fREIiIPMg6i9GR_ywHbUnQ", "full_address": "25 N Pleasant St\nAmherst, MA 01002", "latitude": 42.3761284, "state": "MA", "longitude": -72.5198393, "stars": 3.5, "schools": ["University of Massachusetts - Amherst"], "open": true, "categories": ["Mediterranean", "Restaurants"], "photo_url": "http://s3-media4.ak.yelpcdn.com/bphoto/q68Y_oRt_6nwCZ0-BXVT6A/ms.jpg"}, {"city": "Amherst", "review_count": 13, "name": "Bruno's", "neighborhoods": [], "url": "http://www.yelp.com/biz/brunos-amherst", "type": "business", "business_id": "KbFb1n-RZd5HOn2q1qOD1A", "full_address": "363 Main St\nAmherst, MA 01002", "latitude": 42.3758104, "state": "MA", "longitude": -72.5127763, "stars": 3.5, "schools": ["University of Massachusetts - Amherst"], "open": true, "categories": ["Pizza", "Restaurants"], "photo_url": "http://s3-media3.ak.yelpcdn.com/bphoto/rMnLMqo5eOfV3kFZIbvwZg/ms.jpg"}, {"city": "Hadley", "review_count": 3, "name": "Stop & Shop", "neighborhoods": [], "url": "http://www.yelp.com/biz/stop-and-shop-hadley", "type": "business", "business_id": "8gg2BB7T0NOtjFXK7ROQ5Q", "full_address": "456 Russell St\nHadley, MA 01035", "latitude": 42.3649554, "state": "MA", "longitude": -72.5367464, "stars": 3.5, "schools": ["University of Massachusetts - Amherst"], "open": true, "categories": ["Food", "Grocery"], "photo_url": "http://s3-media3.ak.yelpcdn.com/bphoto/AzY6qlqe3RHBxXOqYhoIfg/ms.jpg"}, {"city": "Amherst", "review_count": 8, "name": "The Sub and Pizza", "neighborhoods": [], "url": "http://www.yelp.com/biz/the-sub-and-pizza-amherst", "type": "business", "business_id": "SZ-w-jLaSJocRtAQB2qDIA", "full_address": "33 E Pleasant St\nAmherst, MA 01002", "latitude": 42.3801557, "state": "MA", "longitude": -72.5193031, "stars": 3.5, "schools": ["University of Massachusetts - Amherst"], "open": true, "categories": ["Pizza", "Restaurants"], "photo_url": "http://s3-media3.ak.yelpcdn.com/bphoto/Uc3vj1xCILEcoy8VWq8Elg/ms.jpg"}, {"city": "Amherst", "review_count": 2, "name": "Essentials", "neighborhoods": [], "url": "http://www.yelp.com/biz/essentials-amherst", "type": "business", "business_id": "a75FjNCtzBvpETX_Ur3N4w", "full_address": "28 Amity St\nSte 1E\nAmherst, MA 01004", "latitude": 42.384405, "state": "MA", "longitude": -72.513652, "stars": 4.0, "schools": ["University of Massachusetts - Amherst"], "open": true, "categories": ["Shopping"], "photo_url": "http://s3-media1.ak.yelpcdn.com/assets/2/www/img/924a6444ca6c/gfx/blank_biz_medium.gif"}, {"city": "Amherst", "review_count": 2, "name": "Subway Amherst Inc", "neighborhoods": [], "url": "http://www.yelp.com/biz/subway-amherst-inc-amherst", "type": "business", "business_id": "EBOKlLXepUQImS8wV4068A", "full_address": "4 Main St\nAmherst, MA 01002", "latitude": 42.3757999, "state": "MA", "longitude": -72.5196646, "stars": 3.5, "schools": ["University of Massachusetts - Amherst"], "open": true, "categories": [], "photo_url": "http://s3-media1.ak.yelpcdn.com/assets/2/www/img/924a6444ca6c/gfx/blank_biz_medium.gif"}, {"city": "Amherst", "review_count": 2, "name": "Supercuts-Amherst", "neighborhoods": [], "url": "http://www.yelp.com/biz/supercuts-amherst-amherst", "type": "business", "business_id": "76ept0_vA0XbmKg8hO2udQ", "full_address": "175 University Dr\nAmherst, MA 01002", "latitude": 42.377265, "state": "MA", "longitude": -72.532137, "stars": 1.0, "schools": ["University of Massachusetts - Amherst"], "open": true, "categories": ["Hair Salons", "Beauty and Spas"], "photo_url": "http://s3-media1.ak.yelpcdn.com/assets/2/www/img/924a6444ca6c/gfx/blank_biz_medium.gif"}, {"city": "Amherst", "review_count": 2, "name": "Kamins Rl Est", "neighborhoods": [], "url": "http://www.yelp.com/biz/kamins-rl-est-amherst", "type": "business", "business_id": "rY7qwLnR-TPlkUYWN5rJew", "full_address": "55 N Pleasant St\nAmherst, MA 01002", "latitude": 42.376585, "state": "MA", "longitude": -72.519523, "stars": 1.5, "schools": ["University of Massachusetts - Amherst"], "open": true, "categories": ["Real Estate Services", "Home Services", "Real Estate"], "photo_url": "http://s3-media1.ak.yelpcdn.com/assets/2/www/img/924a6444ca6c/gfx/blank_biz_medium.gif"}, {"city": "Amherst", "review_count": 6, "name": "Dv Den", "neighborhoods": [], "url": "http://www.yelp.com/biz/dv-den-amherst", "type": "business", "business_id": "VqhpCGRniGVfsfrQN_VnwA", "full_address": "320 College St\nAmherst, MA 01002", "latitude": 42.3731444, "state": "MA", "longitude": -72.5031641, "stars": 4.5, "schools": ["University of Massachusetts - Amherst"], "open": true, "categories": ["Videos and Video Game Rental", "Books, Mags, Music and Video", "Shopping"], "photo_url": "http://s3-media1.ak.yelpcdn.com/assets/2/www/img/924a6444ca6c/gfx/blank_biz_medium.gif"}, {"city": "Amherst", "review_count": 3, "name": "Captain Candy", "neighborhoods": [], "url": "http://www.yelp.com/biz/captain-candy-amherst", "type": "business", "business_id": "NOU1Ht1hns0_aF8Zc_6O_Q", "full_address": "103 N Pleasent St\nAmherst, MA 01002", "latitude": 42.37722, "state": "MA", "longitude": -72.519143, "stars": 5.0, "schools": ["University of Massachusetts - Amherst"], "open": true, "categories": ["Food", "Desserts"], "photo_url": "http://s3-media4.ak.yelpcdn.com/bphoto/D7N69Eq-12ECq4la5PDs4g/ms.jpg"}, {"city": "Hadley", "review_count": 4, "name": "Taco Bell", "neighborhoods": [], "url": "http://www.yelp.com/biz/taco-bell-hadley-2", "type": "business", "business_id": "pdoNdba03NXOdhaDIFkKcg", "full_address": "348 Russell St\nHadley, MA 01035", "latitude": 42.3577214, "state": "MA", "longitude": -72.5512059, "stars": 3.0, "schools": ["University of Massachusetts - Amherst"], "open": true, "categories": ["Fast Food", "Mexican", "Restaurants"], "photo_url": "http://s3-media3.ak.yelpcdn.com/bphoto/KmnfYQ_JzajfOocjAav3uA/ms.jpg"}, {"city": "Amherst", "review_count": 2, "name": "Newman Center", "neighborhoods": [], "url": "http://www.yelp.com/biz/newman-center-amherst", "type": "business", "business_id": "35ww51JXCkobhdf6GhvEhw", "full_address": "472 N Pleasant St\nAmherst, MA 01002", "latitude": 42.3866648, "state": "MA", "longitude": -72.5225337, "stars": 5.0, "schools": ["University of Massachusetts - Amherst"], "open": true, "categories": [], "photo_url": "http://s3-media3.ak.yelpcdn.com/bphoto/VrXS8YgxdHf6WpbTy6ZrzA/ms.jpg"}, {"city": "Hadley", "review_count": 2, "name": "Sully's Restaurant", "neighborhoods": [], "url": "http://www.yelp.com/biz/sullys-restaurant-hadley", "type": "business", "business_id": "1K4zYEVDxUtacLGdZU2nWw", "full_address": "119 East St\nHadley, MA 01035", "latitude": 42.3394415, "state": "MA", "longitude": -72.5817176, "stars": 5.0, "schools": ["University of Massachusetts - Amherst"], "open": true, "categories": ["Breakfast & Brunch", "Restaurants"], "photo_url": "http://s3-media1.ak.yelpcdn.com/assets/2/www/img/924a6444ca6c/gfx/blank_biz_medium.gif"}, {"city": "Amherst", "review_count": 6, "name": "Captain Video", "neighborhoods": [], "url": "http://www.yelp.com/biz/captain-video-amherst", "type": "business", "business_id": "zP9Bvpsm76lWrAgKAt5QaQ", "full_address": "19 Montague Rd\nAmherst, MA 01002", "latitude": 42.410996, "state": "MA", "longitude": -72.5306441, "stars": 5.0, "schools": ["University of Massachusetts - Amherst"], "open": true, "categories": ["Videos and Video Game Rental", "Books, Mags, Music and Video", "Shopping"], "photo_url": "http://s3-media4.ak.yelpcdn.com/bphoto/9Fd0Ra_e5E42mAXaPkimdQ/ms.jpg"}, {"city": "Amherst", "review_count": 2, "name": "Pizzarama", "neighborhoods": [], "url": "http://www.yelp.com/biz/pizzarama-amherst", "type": "business", "business_id": "pOe5JXmJVwzjtyJlhP6dVA", "full_address": "356 College St\nAmherst, MA 01002", "latitude": 42.3731133, "state": "MA", "longitude": -72.5018409, "stars": 3.5, "schools": ["University of Massachusetts - Amherst"], "open": true, "categories": [], "photo_url": "http://s3-media1.ak.yelpcdn.com/assets/2/www/img/924a6444ca6c/gfx/blank_biz_medium.gif"}, {"city": "Hadley", "review_count": 2, "name": "Pete's Drive-In", "neighborhoods": [], "url": "http://www.yelp.com/biz/petes-drive-in-hadley", "type": "business", "business_id": "O-ZPOGlws9LznmNrSeniyg", "full_address": "287 Russell St\nHadley, MA 01035", "latitude": 42.350763, "state": "MA", "longitude": -72.56493, "stars": 1.5, "schools": ["University of Massachusetts - Amherst"], "open": false, "categories": ["American (New)", "Restaurants"], "photo_url": "http://s3-media1.ak.yelpcdn.com/bphoto/XaD0pXHe63-zaDNyc38MRA/ms.jpg"}, {"city": "Amherst", "review_count": 2, "name": "Verena Smith", "neighborhoods": [], "url": "http://www.yelp.com/biz/verena-smith-amherst", "type": "business", "business_id": "c3bAq3DdF-sAugGJUMJXfQ", "full_address": "19 Cosby Ave\nAmherst, MA 01002", "latitude": 42.380512, "state": "MA", "longitude": -72.524519, "stars": 5.0, "schools": ["University of Massachusetts - Amherst"], "open": true, "categories": ["Acupuncture", "Health and Medical"], "photo_url": "http://s3-media1.ak.yelpcdn.com/assets/2/www/img/924a6444ca6c/gfx/blank_biz_medium.gif"}, {"city": "Amherst", "review_count": 16, "name": "Mom's House Convenience Store", "neighborhoods": [], "url": "http://www.yelp.com/biz/moms-house-convenience-store-amherst", "type": "business", "business_id": "c8zOgLyDNaOZ4BHrnZyrqw", "full_address": "318 College St\nAmherst, MA 01002", "latitude": 42.3731447, "state": "MA", "longitude": -72.5033028, "stars": 4.0, "schools": ["University of Massachusetts - Amherst"], "open": true, "categories": ["Food", "Convenience Stores"], "photo_url": "http://s3-media4.ak.yelpcdn.com/bphoto/jVdskKZKaVv7vQKvY7F0bQ/ms.jpg"}, {"city": "Hadley", "review_count": 2, "name": "Grey Matter Books", "neighborhoods": [], "url": "http://www.yelp.com/biz/grey-matter-books-hadley", "type": "business", "business_id": "VCNHBlQSI4Qq71ifHDbYXw", "full_address": "54 East St\nHadley, MA 01035", "latitude": 42.346257, "state": "MA", "longitude": -72.581965, "stars": 4.5, "schools": ["University of Massachusetts - Amherst"], "open": true, "categories": [], "photo_url": "http://s3-media4.ak.yelpcdn.com/bphoto/_B-Yogb7c92vN2TvOdASsQ/ms.jpg"}, {"city": "Amherst", "review_count": 2, "name": "Village Auto Service", "neighborhoods": [], "url": "http://www.yelp.com/biz/village-auto-service-amherst", "type": "business", "business_id": "NaxmyldPOv16inSmB3Y0xw", "full_address": "24 Montague Rd\nAmherst, MA 01002", "latitude": 42.41126, "state": "MA", "longitude": -72.530979, "stars": 5.0, "schools": ["University of Massachusetts - Amherst"], "open": true, "categories": ["Auto Repair", "Automotive"], "photo_url": "http://s3-media1.ak.yelpcdn.com/assets/2/www/img/924a6444ca6c/gfx/blank_biz_medium.gif"}, {"city": "Amherst", "review_count": 7, "name": "Green Earth Computers", "neighborhoods": [], "url": "http://www.yelp.com/biz/green-earth-computers-amherst", "type": "business", "business_id": "ybrkPt8Xy7o7ccyp0ZoWVw", "full_address": "48 N Pleasant St\nUnit B2\nAmherst, MA 01002", "latitude": 42.37654, "state": "MA", "longitude": -72.520069, "stars": 5.0, "schools": ["University of Massachusetts - Amherst"], "open": true, "categories": ["Local Services", "Computers", "Shopping", "IT Services & Computer Repair"], "photo_url": "http://s3-media1.ak.yelpcdn.com/bphoto/eHSjj_B9liDIjR5v56H5Bw/ms.jpg"}, {"city": "Hadley", "review_count": 2, "name": "Howard Johnsons", "neighborhoods": [], "url": "http://www.yelp.com/biz/howard-johnsons-hadley", "type": "business", "business_id": "o-FCuE8JQKDdHTaR6D_Sxg", "full_address": "401 Russell St\nHadley, MA 01035", "latitude": 42.359757, "state": "MA", "longitude": -72.544215, "stars": 1.5, "schools": ["University of Massachusetts - Amherst"], "open": true, "categories": ["Hotels & Travel", "Event Planning & Services", "Hotels"], "photo_url": "http://s3-media1.ak.yelpcdn.com/assets/2/www/img/924a6444ca6c/gfx/blank_biz_medium.gif"}, {"city": "Hadley", "review_count": 2, "name": "Jiffy Lube", "neighborhoods": [], "url": "http://www.yelp.com/biz/jiffy-lube-hadley", "type": "business", "business_id": "Zk6ymf4JwJzc_qabW8RzBg", "full_address": "347 Russell St - Rt.9\nHadley, MA 01035", "latitude": 42.3417565, "state": "MA", "longitude": -72.5884222, "stars": 4.0, "schools": ["University of Massachusetts - Amherst"], "open": true, "categories": ["Auto Repair", "Automotive"], "photo_url": "http://s3-media2.ak.yelpcdn.com/bphoto/wBJQQKNM78TobLL9zuzmBA/ms.jpg"}, {"city": "Amherst", "review_count": 14, "name": "Loose Goose Cafe", "neighborhoods": [], "url": "http://www.yelp.com/biz/loose-goose-cafe-amherst", "type": "business", "business_id": "r38bIMzm5wWNq19mISncDA", "full_address": "1 E Pleasant St\nAmherst, MA 01002", "latitude": 42.3792341, "state": "MA", "longitude": -72.5197492, "stars": 3.0, "schools": ["University of Massachusetts - Amherst"], "open": true, "categories": ["Food", "Coffee & Tea", "Cafes", "Sandwiches", "Restaurants"], "photo_url": "http://s3-media4.ak.yelpcdn.com/bphoto/BiVPFYJyi9UlTH65xbgYGA/ms.jpg"}, {"city": "Amherst", "review_count": 7, "name": "Ginger Garden", "neighborhoods": [], "url": "http://www.yelp.com/biz/ginger-garden-amherst", "type": "business", "business_id": "0msAbcZIxbd0SNScpNaDkg", "full_address": "351 Northampton Rd\nAmherst, MA 01002", "latitude": 42.366811, "state": "MA", "longitude": -72.533947, "stars": 3.5, "schools": ["University of Massachusetts - Amherst"], "open": true, "categories": ["Asian Fusion", "Chinese", "Restaurants"], "photo_url": "http://s3-media3.ak.yelpcdn.com/bphoto/t13H8ZgG9-tW5LX4qbde5g/ms.jpg"}, {"city": "Amherst", "review_count": 5, "name": "Peter Pan Bus Line", "neighborhoods": [], "url": "http://www.yelp.com/biz/peter-pan-bus-line-amherst", "type": "business", "business_id": "8V0qsdynqPesYpHrL725UQ", "full_address": "8 Main St\nAmherst, MA 01002", "latitude": 42.375772, "state": "MA", "longitude": -72.51974, "stars": 2.0, "schools": ["University of Massachusetts - Amherst"], "open": true, "categories": [], "photo_url": "http://s3-media1.ak.yelpcdn.com/assets/2/www/img/924a6444ca6c/gfx/blank_biz_medium.gif"}, {"city": "Hadley", "review_count": 4, "name": "Burger King-Hadley", "neighborhoods": [], "url": "http://www.yelp.com/biz/burger-king-hadley-hadley", "type": "business", "business_id": "EmlrdmsvznKMVrafcFMzbg", "full_address": "Mount Farms Mall\nHadley, MA 01035", "latitude": 42.3931447, "state": "MA", "longitude": -72.5520322, "stars": 3.0, "schools": ["University of Massachusetts - Amherst"], "open": true, "categories": [], "photo_url": "http://s3-media1.ak.yelpcdn.com/assets/2/www/img/924a6444ca6c/gfx/blank_biz_medium.gif"}, {"city": "Amherst", "review_count": 2, "name": "Sarah Prall Photography", "neighborhoods": [], "url": "http://www.yelp.com/biz/sarah-prall-photography-amherst", "type": "business", "business_id": "D1_25rfl7k6vhTJc11OPoQ", "full_address": "Amherst, MA 01002", "latitude": 42.3403799, "state": "MA", "longitude": -72.4968189, "stars": 5.0, "schools": ["University of Massachusetts - Amherst"], "open": true, "categories": ["Photographers", "Event Planning & Services"], "photo_url": "http://s3-media4.ak.yelpcdn.com/bphoto/In7nIFL5gu19rE-BipQLxQ/ms.jpg"}, {"city": "Amherst", "review_count": 2, "name": "UMass Recreation Center", "neighborhoods": [], "url": "http://www.yelp.com/biz/umass-recreation-center-amherst", "type": "business", "business_id": "bvMxonNAnFLYYyvpFAMfkQ", "full_address": "161 Commonwealth Avenue\nUniversity of Massachusetts\nAmherst, MA 01003", "latitude": 42.3893806, "state": "MA", "longitude": -72.5334389, "stars": 5.0, "schools": ["University of Massachusetts - Amherst"], "open": true, "categories": ["Active Life", "Sports Clubs", "Fitness & Instruction"], "photo_url": "http://s3-media1.ak.yelpcdn.com/bphoto/UdKtKX02hYUjxwYu2q3QrQ/ms.jpg"}, {"city": "Sunderland", "review_count": 2, "name": "7 Eleven", "neighborhoods": [], "url": "http://www.yelp.com/biz/7-eleven-sunderland", "type": "business", "business_id": "gvrYwDnpCncvXYklisyCew", "full_address": "668 Amherst Rd\nSunderland, MA 01375", "latitude": 42.4313253, "state": "MA", "longitude": -72.5435671, "stars": 3.0, "schools": ["University of Massachusetts - Amherst"], "open": true, "categories": ["Food", "Convenience Stores"], "photo_url": "http://s3-media1.ak.yelpcdn.com/assets/2/www/img/924a6444ca6c/gfx/blank_biz_medium.gif"}, {"city": "Amherst", "review_count": 13, "name": "Eric Carle Museum of Picture Book Art", "neighborhoods": [], "url": "http://www.yelp.com/biz/eric-carle-museum-of-picture-book-art-amherst", "type": "business", "business_id": "VhpRKw2w_x3foU0x2k5EFw", "full_address": "125 W Bay Rd\nAmherst, MA 01002", "latitude": 42.321003, "state": "MA", "longitude": -72.533142, "stars": 3.5, "schools": ["University of Massachusetts - Amherst"], "open": true, "categories": ["Museums", "Arts & Entertainment", "Art Galleries", "Shopping"], "photo_url": "http://s3-media2.ak.yelpcdn.com/bphoto/piwwq7tb8izFcWVn1SGeVg/ms.jpg"}]