[{"city": "Kitchener", "review_count": 2, "name": "Faith & Glory Collective", "neighborhoods": [], "url": "http://www.yelp.ca/biz/faith-and-glory-collective-kitchener", "type": "business", "business_id": "lb9qELwduFgBo408x2VKOA", "full_address": "19 King St E\n2nd floor\nKitchener, ON N2G", "latitude": 43.4496452, "state": "ON", "longitude": -80.488824, "stars": 4.0, "schools": ["University of Waterloo"], "open": true, "categories": ["Tattoo", "Beauty and Spas"], "photo_url": "http://s3-media1.ak.yelpcdn.com/assets/2/www/img/924a6444ca6c/gfx/blank_biz_medium.gif"}, {"city": "Waterloo", "review_count": 2, "name": "The Bauer Bakery & Cafe", "neighborhoods": [], "url": "http://www.yelp.ca/biz/the-bauer-bakery-and-cafe-waterloo", "type": "business", "business_id": "3WFnzu8D6S_T7guXZIOp7A", "full_address": "187 King Street South\nWaterloo, ON N2J 1R1", "latitude": 43.4593947, "state": "ON", "longitude": -80.5190295, "stars": 3.5, "schools": ["University of Waterloo"], "open": true, "categories": ["Food", "Coffee & Tea", "Cafes", "Restaurants"], "photo_url": "http://s3-media1.ak.yelpcdn.com/bphoto/v9cbYOGD14tm6qwq9HW4oA/ms.jpg"}, {"city": "Waterloo", "review_count": 6, "name": "Sole Restaurant & Wine Bar", "neighborhoods": [], "url": "http://www.yelp.ca/biz/sole-restaurant-and-wine-bar-waterloo", "type": "business", "business_id": "IU9j37tFH_Dg_8rLkuqDSQ", "full_address": "83 Erb St W\nWaterloo, ON N2L 6C2", "latitude": 43.463366, "state": "ON", "longitude": -80.5273068, "stars": 4.0, "schools": ["University of Waterloo"], "open": true, "categories": ["Bars", "Greek", "Mediterranean", "Wine Bars", "Nightlife", "Restaurants"], "photo_url": "http://s3-media1.ak.yelpcdn.com/bphoto/34QVlikePPvqeWh1FUYl6w/ms.jpg"}, {"city": "Waterloo", "review_count": 6, "name": "Yummyaki Japanese Restaurant", "neighborhoods": [], "url": "http://www.yelp.ca/biz/yummyaki-japanese-restaurant-waterloo", "type": "business", "business_id": "XrqownLHKAzfQwJl-spFeQ", "full_address": "55 Northfield Dr E\nWaterloo, ON N2K 3T6", "latitude": 43.5034294, "state": "ON", "longitude": -80.5284966, "stars": 4.0, "schools": ["University of Waterloo"], "open": true, "categories": ["Japanese", "Restaurants"], "photo_url": "http://s3-media1.ak.yelpcdn.com/assets/2/www/img/924a6444ca6c/gfx/blank_biz_medium.gif"}, {"city": "Waterloo", "review_count": 4, "name": "Whole Lot-a Gelata", "neighborhoods": [], "url": "http://www.yelp.ca/biz/whole-lot-a-gelata-waterloo-2", "type": "business", "business_id": "jPbtuDvhEhnQeuG8AU3gBQ", "full_address": "120 King St S\nWaterloo, ON N2J 1P5", "latitude": 43.4622996, "state": "ON", "longitude": -80.5215439, "stars": 4.0, "schools": ["University of Waterloo"], "open": true, "categories": ["Food", "Desserts", "Coffee & Tea", "Ice Cream & Frozen Yogurt"], "photo_url": "http://s3-media1.ak.yelpcdn.com/bphoto/ixjSzgWH4D_XxXvE0lDX5g/ms.jpg"}, {"city": "Kitchener", "review_count": 2, "name": "Toppers Pizza", "neighborhoods": [], "url": "http://www.yelp.ca/biz/toppers-pizza-kitchener", "type": "business", "business_id": "lW9v4mHbSRVwlHSTk9hSCg", "full_address": "324 Highland Road W\nKitchener, ON N2M 5G2", "latitude": 43.4389902, "state": "ON", "longitude": -80.5087867, "stars": 1.0, "schools": ["University of Waterloo"], "open": true, "categories": ["Pizza", "Restaurants"], "photo_url": "http://s3-media1.ak.yelpcdn.com/bphoto/-RlQBgaw-VsaICwY8FaxLA/ms.jpg"}, {"city": "Waterloo", "review_count": 4, "name": "Conestoga Mall", "neighborhoods": [], "url": "http://www.yelp.ca/biz/conestoga-mall-waterloo", "type": "business", "business_id": "yO-VbEBYrBxhPXB6v2uVig", "full_address": "550 King St N\nWaterloo, ON N2L 5W6", "latitude": 43.4980824, "state": "ON", "longitude": -80.5274971, "stars": 4.0, "schools": ["University of Waterloo"], "open": true, "categories": ["Shopping Centers", "Shopping"], "photo_url": "http://s3-media1.ak.yelpcdn.com/bphoto/fKa8R2lwIY3M1h_GdAzOkA/ms.jpg"}, {"city": "Waterloo", "review_count": 3, "name": "The Daily Grill", "neighborhoods": [], "url": "http://www.yelp.ca/biz/the-daily-grill-waterloo", "type": "business", "business_id": "H-lXyHlSlaLBOepN_Qvm8w", "full_address": "615 Davenport Road\nWaterloo, ON N2V 2G2", "latitude": 43.5040487, "state": "ON", "longitude": -80.5289459, "stars": 4.5, "schools": ["University of Waterloo"], "open": true, "categories": [], "photo_url": "http://s3-media1.ak.yelpcdn.com/bphoto/5_OqOQObl3OHCEo8qaXGdA/ms.jpg"}, {"city": "Waterloo", "review_count": 2, "name": "Failte Irish Pub", "neighborhoods": [], "url": "http://www.yelp.ca/biz/failte-irish-pub-waterloo", "type": "business", "business_id": "YvLyDin4LgvgmIivlxMoZQ", "full_address": "85 King Street N\nWaterloo, ON N2J 2X3", "latitude": 43.4679985, "state": "ON", "longitude": -80.5233044, "stars": 2.0, "schools": ["University of Waterloo"], "open": true, "categories": ["Nightlife"], "photo_url": "http://s3-media3.ak.yelpcdn.com/bphoto/FMaARj1NgwzKUTWDLHQxmA/ms.jpg"}, {"city": "Waterloo", "review_count": 3, "name": "Janet Lynn's Bistro", "neighborhoods": [], "url": "http://www.yelp.ca/biz/janet-lynns-bistro-waterloo", "type": "business", "business_id": "cZoY24As9-CPqqaj3Nv91g", "full_address": "92 King Street S\nWaterloo, ON N2J 1P5", "latitude": 43.4631408, "state": "ON", "longitude": -80.5216627, "stars": 3.5, "schools": ["University of Waterloo"], "open": true, "categories": [], "photo_url": "http://s3-media1.ak.yelpcdn.com/assets/2/www/img/924a6444ca6c/gfx/blank_biz_medium.gif"}, {"city": "Waterloo", "review_count": 6, "name": "Seven Shores Urban Market and Cafe", "neighborhoods": [], "url": "http://www.yelp.ca/biz/seven-shores-urban-market-and-cafe-waterloo", "type": "business", "business_id": "wmbE33a3AsW-nhjbaagHzw", "full_address": "8 Regina Street N\nUnit 5\nWaterloo, ON N2J 2Z8", "latitude": 43.465845, "state": "ON", "longitude": -80.521127, "stars": 4.0, "schools": ["University of Waterloo"], "open": true, "categories": ["Food", "Coffee & Tea"], "photo_url": "http://s3-media3.ak.yelpcdn.com/bphoto/kg-SZc21gMyb9Xv3wChxzg/ms.jpg"}, {"city": "Waterloo", "review_count": 7, "name": "Meet Point Restaurant", "neighborhoods": [], "url": "http://www.yelp.ca/biz/meet-point-restaurant-waterloo", "type": "business", "business_id": "KSyA0CR6r_zR-43uiYtdJQ", "full_address": "150 University Avenue W\nSuite 3\nWaterloo, ON N2L 3E4", "latitude": 43.472467, "state": "ON", "longitude": -80.535478, "stars": 4.5, "schools": ["University of Waterloo"], "open": true, "categories": ["Turkish", "Mediterranean", "Restaurants"], "photo_url": "http://s3-media3.ak.yelpcdn.com/bphoto/pkQy08x9RXO3CyjA6LmVew/ms.jpg"}, {"city": "Waterloo", "review_count": 15, "name": "Nick and Nat's Uptown 21", "neighborhoods": [], "url": "http://www.yelp.ca/biz/nick-and-nats-uptown-21-waterloo", "type": "business", "business_id": "2YUKJyCFnXDijmCpqhP9pQ", "full_address": "21 King St N\nWaterloo, ON N2J", "latitude": 43.4656777, "state": "ON", "longitude": -80.5226592, "stars": 5.0, "schools": ["University of Waterloo"], "open": true, "categories": ["Canadian (New)", "Restaurants"], "photo_url": "http://s3-media2.ak.yelpcdn.com/bphoto/QT4Xk8aCzjoyfNJ29OIC0Q/ms.jpg"}, {"city": "Waterloo", "review_count": 2, "name": "King Street Trio", "neighborhoods": [], "url": "http://www.yelp.ca/biz/king-street-trio-waterloo", "type": "business", "business_id": "tCHzMY3WnCxw2lHvnMcXFA", "full_address": "40 King Street South\nWaterloo, ON N2J 1N9", "latitude": 43.465098, "state": "ON", "longitude": -80.522223, "stars": 4.0, "schools": ["University of Waterloo"], "open": true, "categories": ["Seafood", "Restaurants"], "photo_url": "http://s3-media1.ak.yelpcdn.com/assets/2/www/img/924a6444ca6c/gfx/blank_biz_medium.gif"}, {"city": "Waterloo", "review_count": 5, "name": "Phat Cat Restaurant", "neighborhoods": [], "url": "http://www.yelp.ca/biz/phat-cat-restaurant-waterloo", "type": "business", "business_id": "GS3vqosK_1vROEnqzvUrMg", "full_address": "170 Av University O\nWaterloo, ON N2L 3E9", "latitude": 43.472294, "state": "ON", "longitude": -80.538572, "stars": 3.0, "schools": ["University of Waterloo"], "open": true, "categories": [], "photo_url": "http://s3-media1.ak.yelpcdn.com/assets/2/www/img/924a6444ca6c/gfx/blank_biz_medium.gif"}, {"city": "Kitchener", "review_count": 2, "name": "Lovenest African Restaurant", "neighborhoods": [], "url": "http://www.yelp.ca/biz/lovenest-african-restaurant-kitchener", "type": "business", "business_id": "dJEbgtQRF_-cjPK_KEBz3Q", "full_address": "183 King St E\nKitchener, ON N2G 2K8", "latitude": 43.4485856, "state": "ON", "longitude": -80.4862733, "stars": 4.0, "schools": ["University of Waterloo"], "open": true, "categories": ["Ethiopian", "Restaurants"], "photo_url": "http://s3-media1.ak.yelpcdn.com/assets/2/www/img/924a6444ca6c/gfx/blank_biz_medium.gif"}, {"city": "Kitchener", "review_count": 3, "name": "Sushi Star", "neighborhoods": [], "url": "http://www.yelp.ca/biz/sushi-star-kitchener", "type": "business", "business_id": "fpuEIci83z35sIHEOzT78A", "full_address": "450 King St E\nKitchener, ON N2G 2L6", "latitude": 43.4466748, "state": "ON", "longitude": -80.4820657, "stars": 3.0, "schools": ["University of Waterloo"], "open": true, "categories": ["Sushi Bars", "Restaurants"], "photo_url": "http://s3-media4.ak.yelpcdn.com/bphoto/7U08g_OtYXupFy0nr0iXoQ/ms.jpg"}, {"city": "Waterloo", "review_count": 12, "name": "Coffee Culture", "neighborhoods": [], "url": "http://www.yelp.ca/biz/coffee-culture-waterloo", "type": "business", "business_id": "YI7z2ENr2t6e-FkZZCT3jw", "full_address": "31 King St N\nWaterloo, ON N2J", "latitude": 43.4660176, "state": "ON", "longitude": -80.5226314, "stars": 3.0, "schools": ["University of Waterloo"], "open": true, "categories": ["Food", "Coffee & Tea", "Sandwiches", "Restaurants"], "photo_url": "http://s3-media3.ak.yelpcdn.com/bphoto/vKzP_fMKLKjwvEcHk56byg/ms.jpg"}, {"city": "Waterloo", "review_count": 3, "name": "Gourmet Pizza Cafe", "neighborhoods": [], "url": "http://www.yelp.ca/biz/gourmet-pizza-cafe-waterloo", "type": "business", "business_id": "EnRTgWBNBO9L5rmVfcik4A", "full_address": "75 King St S\nWaterloo, ON N2J 1P2", "latitude": 43.4639601, "state": "ON", "longitude": -80.5223735, "stars": 3.5, "schools": ["University of Waterloo"], "open": true, "categories": ["Pizza", "Restaurants"], "photo_url": "http://s3-media1.ak.yelpcdn.com/assets/2/www/img/924a6444ca6c/gfx/blank_biz_medium.gif"}, {"city": "Kitchener", "review_count": 3, "name": "Matter of Taste", "neighborhoods": [], "url": "http://www.yelp.ca/biz/matter-of-taste-kitchener", "type": "business", "business_id": "donCaKqBHa1ExpfTO11pIg", "full_address": "119 King Street W\nKitchener, ON N2G 1A7", "latitude": 43.4506419, "state": "ON", "longitude": -80.491288, "stars": 5.0, "schools": ["University of Waterloo"], "open": true, "categories": ["Food", "Desserts", "Coffee & Tea", "Internet Cafes"], "photo_url": "http://s3-media2.ak.yelpcdn.com/bphoto/XtrN-tEdMjLrMMwnip_E-A/ms.jpg"}, {"city": "Waterloo", "review_count": 2, "name": "Orange Monkey Music", "neighborhoods": [], "url": "http://www.yelp.ca/biz/orange-monkey-music-waterloo", "type": "business", "business_id": "Ljd7mMmKlESu6txfwfOlIA", "full_address": "5 Princess Street W\nWaterloo, ON N2L 2X7", "latitude": 43.4667053, "state": "ON", "longitude": -80.5233739, "stars": 4.0, "schools": ["University of Waterloo"], "open": true, "categories": ["Music & DVDs", "Books, Mags, Music and Video", "Shopping"], "photo_url": "http://s3-media1.ak.yelpcdn.com/assets/2/www/img/924a6444ca6c/gfx/blank_biz_medium.gif"}, {"city": "Waterloo", "review_count": 6, "name": "Ausanda Chocolate", "neighborhoods": [], "url": "http://www.yelp.ca/biz/ausanda-chocolate-waterloo", "type": "business", "business_id": "_UNnXpOAs0Uz5-1O4ZsJHg", "full_address": "255 King St N\nWaterloo, ON N2J 2Y8", "latitude": 43.4770992, "state": "ON", "longitude": -80.5256905, "stars": 4.5, "schools": ["University of Waterloo"], "open": true, "categories": ["Food", "Desserts", "Coffee & Tea", "Specialty Food", "Chocolatiers and Shops"], "photo_url": "http://s3-media4.ak.yelpcdn.com/bphoto/4OlOELRj8jtNpH7v_AWY8g/ms.jpg"}, {"city": "Waterloo", "review_count": 5, "name": "Kismet Restaurant", "neighborhoods": [], "url": "http://www.yelp.ca/biz/kismet-restaurant-waterloo", "type": "business", "business_id": "TnBT52_iEhl0XZ1kubyldw", "full_address": "160 University Ave West\nWaterloo, ON N2L 3E9", "latitude": 43.4716984, "state": "ON", "longitude": -80.53712, "stars": 4.0, "schools": ["University of Waterloo"], "open": true, "categories": ["Restaurants"], "photo_url": "http://s3-media1.ak.yelpcdn.com/bphoto/mvKfyUp3Ys9V4VuEszscTA/ms.jpg"}, {"city": "Waterloo", "review_count": 10, "name": "Williams Fresh Cafe", "neighborhoods": [], "url": "http://www.yelp.ca/biz/williams-fresh-cafe-waterloo", "type": "business", "business_id": "BUq0q_5DiNXYZ29kCsgyXg", "full_address": "170 University Ave W\nWaterloo, ON N2L 3E9", "latitude": 43.472294, "state": "ON", "longitude": -80.538572, "stars": 4.0, "schools": ["University of Waterloo"], "open": true, "categories": ["Food", "Coffee & Tea", "Cafes", "Breakfast & Brunch", "Restaurants"], "photo_url": "http://s3-media3.ak.yelpcdn.com/bphoto/Ndkg2xY3HsEZd1H8EVEe3Q/ms.jpg"}, {"city": "Waterloo", "review_count": 16, "name": "The Bauer Kitchen", "neighborhoods": [], "url": "http://www.yelp.ca/biz/the-bauer-kitchen-waterloo", "type": "business", "business_id": "scECdz6MWRKb8XMzGUVtqw", "full_address": "187 King St S\nUnit 102\nWaterloo, ON N2J", "latitude": 43.4602232, "state": "ON", "longitude": -80.5190773, "stars": 4.0, "schools": ["University of Waterloo"], "open": true, "categories": ["American (Traditional)", "Restaurants"], "photo_url": "http://s3-media1.ak.yelpcdn.com/bphoto/AF_9XYBuL7WJK6fWAnhCNg/ms.jpg"}, {"city": "Kitchener", "review_count": 2, "name": "Pho DNK Vietnamese Restaurant", "neighborhoods": [], "url": "http://www.yelp.ca/biz/pho-dnk-vietnamese-restaurant-kitchener", "type": "business", "business_id": "7TwfOPLfBBZEHAoYrPaZEA", "full_address": "151 King St W\nKitchener, ON N2G 1A7", "latitude": 43.4508473, "state": "ON", "longitude": -80.4919039, "stars": 4.5, "schools": ["University of Waterloo"], "open": true, "categories": ["Restaurants", "Vietnamese"], "photo_url": "http://s3-media3.ak.yelpcdn.com/bphoto/U0zsoEqww4FR9zRcD8UDSA/ms.jpg"}, {"city": "Waterloo", "review_count": 7, "name": "University of Waterloo", "neighborhoods": [], "url": "http://www.yelp.ca/biz/university-of-waterloo-waterloo", "type": "business", "business_id": "O4Mlb_PfstWD00pZhnV9ew", "full_address": "200 University Ave W\nWaterloo, ON N2L 3G1", "latitude": 43.4687685, "state": "ON", "longitude": -80.5392848, "stars": 4.0, "schools": ["University of Waterloo"], "open": true, "categories": ["Colleges & Universities", "Education"], "photo_url": "http://s3-media3.ak.yelpcdn.com/bphoto/ynumBzp61zz90pCvaBoUhQ/ms.jpg"}, {"city": "Waterloo", "review_count": 2, "name": "Huether Hotel", "neighborhoods": [], "url": "http://www.yelp.ca/biz/huether-hotel-waterloo", "type": "business", "business_id": "ye6YVLQlzd9JDaJGAzYFkQ", "full_address": "59 King Street N\nWaterloo, ON N2J 2X2", "latitude": 43.4670262, "state": "ON", "longitude": -80.5230279, "stars": 3.0, "schools": ["University of Waterloo"], "open": true, "categories": ["Event Planning & Services", "Caterers"], "photo_url": "http://s3-media2.ak.yelpcdn.com/bphoto/0zgGtVLEgBC7LIF_qH93eg/ms.jpg"}, {"city": "Kitchener", "review_count": 2, "name": "Checkerboard Restaurant", "neighborhoods": [], "url": "http://www.yelp.ca/biz/checkerboard-restaurant-kitchener", "type": "business", "business_id": "nuoxt1lk1EDs3nOIZ3GeBw", "full_address": "705 Belmont Ave W\nKitchener, ON N2M", "latitude": 43.4538468, "state": "ON", "longitude": -80.5183239, "stars": 4.5, "schools": ["University of Waterloo"], "open": true, "categories": ["American (Traditional)", "Diners", "Restaurants"], "photo_url": "http://s3-media3.ak.yelpcdn.com/bphoto/hsK5CKLj1dToBNbvTF6wCQ/ms.jpg"}, {"city": "Kitchener", "review_count": 2, "name": "Morning Glory Bakery Cafe", "neighborhoods": [], "url": "http://www.yelp.ca/biz/morning-glory-bakery-cafe-kitchener", "type": "business", "business_id": "C4XaTyBDIgpdK4H7FAdBoQ", "full_address": "256 King Street E\nKitchener, ON N2G 2L1", "latitude": 43.4480306, "state": "ON", "longitude": -80.4848443, "stars": 4.0, "schools": ["University of Waterloo"], "open": true, "categories": [], "photo_url": "http://s3-media1.ak.yelpcdn.com/assets/2/www/img/924a6444ca6c/gfx/blank_biz_medium.gif"}, {"city": "Kitchener", "review_count": 2, "name": "Misty Mountain Coffee", "neighborhoods": [], "url": "http://www.yelp.ca/biz/misty-mountain-coffee-kitchener", "type": "business", "business_id": "6iDu9sz_MvIFmWyyY3u_Vw", "full_address": "33 Queen St S\nKitchener, ON N2G 1V6", "latitude": 43.4493135, "state": "ON", "longitude": -80.4895696, "stars": 4.0, "schools": ["University of Waterloo"], "open": true, "categories": ["Cafes", "Restaurants"], "photo_url": "http://s3-media3.ak.yelpcdn.com/bphoto/XnmwklzAXqIX-KHfLdacww/ms.jpg"}, {"city": "Kitchener", "review_count": 3, "name": "Golf's Steak House & Seafood", "neighborhoods": [], "url": "http://www.yelp.ca/biz/golfs-steak-house-and-seafood-kitchener", "type": "business", "business_id": "Zdr0XTPN2lraHtztBYAwAA", "full_address": "598 Lancaster St W\nKitchener, ON N2K 1M3", "latitude": 43.480568, "state": "ON", "longitude": -80.4838168, "stars": 3.0, "schools": ["University of Waterloo"], "open": true, "categories": ["Seafood", "Steakhouses", "Restaurants"], "photo_url": "http://s3-media4.ak.yelpcdn.com/bphoto/1oBpW94ly-GSmnoOifwcFA/ms.jpg"}, {"city": "Kitchener", "review_count": 2, "name": "20 King Restaurant", "neighborhoods": [], "url": "http://www.yelp.ca/biz/20-king-restaurant-kitchener", "type": "business", "business_id": "-nxOVZAb0sV0tl7ycYmxDA", "full_address": "45 King Street West\nKitchener, ON N2G 1A1", "latitude": 43.4501904, "state": "ON", "longitude": -80.490119, "stars": 3.5, "schools": ["University of Waterloo"], "open": true, "categories": ["Restaurants", "Event Planning & Services", "Canadian (New)", "Caterers"], "photo_url": "http://s3-media1.ak.yelpcdn.com/assets/2/www/img/924a6444ca6c/gfx/blank_biz_medium.gif"}, {"city": "Waterloo", "review_count": 8, "name": "Benny's Family Restaurant & Lounge", "neighborhoods": [], "url": "http://www.yelp.ca/biz/bennys-family-restaurant-and-lounge-waterloo", "type": "business", "business_id": "uCeb5saLPmw9OMo6ZdnZbQ", "full_address": "183 Weber Street N\nWaterloo, ON N2J 3H3", "latitude": 43.4755885, "state": "ON", "longitude": -80.5178155, "stars": 3.0, "schools": ["University of Waterloo"], "open": true, "categories": ["Breakfast & Brunch", "Bars", "Nightlife", "Lounges", "Restaurants"], "photo_url": "http://s3-media4.ak.yelpcdn.com/bphoto/jXRJl_nN0y_OwmPTLhAR_Q/ms.jpg"}, {"city": "Waterloo", "review_count": 3, "name": "Brick Brewery", "neighborhoods": [], "url": "http://www.yelp.ca/biz/brick-brewery-waterloo", "type": "business", "business_id": "a8dtuiBuyHZDygi0zOmMGQ", "full_address": "181 King St S\nWaterloo, ON N2J 1P7", "latitude": 43.460459, "state": "ON", "longitude": -80.5195072, "stars": 3.0, "schools": ["University of Waterloo"], "open": true, "categories": ["Food", "Breweries"], "photo_url": "http://s3-media1.ak.yelpcdn.com/assets/2/www/img/924a6444ca6c/gfx/blank_biz_medium.gif"}, {"city": "Waterloo", "review_count": 2, "name": "Swiss Chalet", "neighborhoods": [], "url": "http://www.yelp.ca/biz/swiss-chalet-waterloo", "type": "business", "business_id": "xHHgRQuE6XglxlA0lfo2zQ", "full_address": "267 Weber Street North\nWaterloo, ON N2J 3H8", "latitude": 43.4791905, "state": "ON", "longitude": -80.5210644, "stars": 4.5, "schools": ["University of Waterloo"], "open": true, "categories": ["American (Traditional)", "Restaurants"], "photo_url": "http://s3-media4.ak.yelpcdn.com/bphoto/tep-7UV3p7UEIVuC3WQ5oA/ms.jpg"}, {"city": "Waterloo", "review_count": 2, "name": "Philthy McNasty's", "neighborhoods": [], "url": "http://www.yelp.ca/biz/philthy-mcnastys-waterloo", "type": "business", "business_id": "Kj3gT3riEsG02hAoSGyvzg", "full_address": "50 Westmount Rd N\nWaterloo, ON N2L 2R5", "latitude": 43.4624072, "state": "ON", "longitude": -80.5382527, "stars": 3.0, "schools": ["University of Waterloo"], "open": true, "categories": ["American (Traditional)", "Restaurants"], "photo_url": "http://s3-media2.ak.yelpcdn.com/bphoto/cWrCSEZ7us7dDcGl1bafCw/ms.jpg"}, {"city": "Kitchener", "review_count": 2, "name": "Green Kiwi", "neighborhoods": [], "url": "http://www.yelp.ca/biz/green-kiwi-kitchener", "type": "business", "business_id": "uvo9h0vGmPIMmvZBXIBMhQ", "full_address": "Sunrise Shopping Centre\n1400 Ottawa Street S\nKitchener, ON N2E 3L2", "latitude": 43.416715, "state": "ON", "longitude": -80.5133222, "stars": 4.0, "schools": ["University of Waterloo"], "open": false, "categories": ["Canadian (New)", "Restaurants"], "photo_url": "http://s3-media1.ak.yelpcdn.com/assets/2/www/img/924a6444ca6c/gfx/blank_biz_medium.gif"}, {"city": "Waterloo", "review_count": 5, "name": "McGinnis Frontrow Restaurant", "neighborhoods": [], "url": "http://www.yelp.ca/biz/mcginnis-frontrow-restaurant-waterloo", "type": "business", "business_id": "_WQ4JCfo5gddDrIoXKb5tg", "full_address": "160 University Ave W\nWaterloo, ON N2L 3E9", "latitude": 43.4719223, "state": "ON", "longitude": -80.5368282, "stars": 4.0, "schools": ["University of Waterloo"], "open": true, "categories": ["Bars", "Sports Bars", "Nightlife"], "photo_url": "http://s3-media4.ak.yelpcdn.com/bphoto/fsgM43wuyMlJfGAK3z9FYA/ms.jpg"}, {"city": "Waterloo", "review_count": 6, "name": "Keg Steakhouse & Bar", "neighborhoods": [], "url": "http://www.yelp.ca/biz/keg-steakhouse-and-bar-waterloo", "type": "business", "business_id": "_9idMQKPPJgdENns5Fl6tg", "full_address": "42 Northfield Dr E\nWaterloo, ON N2L 6A1", "latitude": 43.5029616, "state": "ON", "longitude": -80.5302892, "stars": 3.0, "schools": ["University of Waterloo"], "open": true, "categories": ["Steakhouses", "Restaurants"], "photo_url": "http://s3-media3.ak.yelpcdn.com/bphoto/LysmCdxy9EFcf-994VQ81Q/ms.jpg"}, {"city": "Waterloo", "review_count": 8, "name": "Burrito Boyz", "neighborhoods": [], "url": "http://www.yelp.ca/biz/burrito-boyz-waterloo", "type": "business", "business_id": "oKfl3rnxVrJHw3XhdD0ZKw", "full_address": "258 King Street N\nWaterloo, ON N2J 2Y9", "latitude": 43.476903, "state": "ON", "longitude": -80.525, "stars": 2.5, "schools": ["University of Waterloo"], "open": true, "categories": ["Tex-Mex", "Restaurants"], "photo_url": "http://s3-media4.ak.yelpcdn.com/bphoto/1jua38dyIVLQ1pDLGYGSNA/ms.jpg"}, {"city": "Kitchener", "review_count": 9, "name": "City Cafe Bakery", "neighborhoods": [], "url": "http://www.yelp.ca/biz/city-cafe-bakery-kitchener", "type": "business", "business_id": "ysP_hodJz4HQT3yKYNBQqg", "full_address": "175 West Ave\nKitchener, ON N2H 2G7", "latitude": 43.4449003, "state": "ON", "longitude": -80.5059112, "stars": 3.5, "schools": ["University of Waterloo"], "open": true, "categories": ["Food", "Bakeries"], "photo_url": "http://s3-media3.ak.yelpcdn.com/bphoto/pZhJG4NoLQm0kppaWUXQJA/ms.jpg"}, {"city": "Waterloo", "review_count": 4, "name": "Taste of Taiwan Home Garden", "neighborhoods": [], "url": "http://www.yelp.ca/biz/taste-of-taiwan-home-garden-waterloo", "type": "business", "business_id": "p9-NFou6-JakyPIJKUqnow", "full_address": "160 Av University O\nWaterloo, ON N2L 3E9", "latitude": 43.4718821, "state": "ON", "longitude": -80.5367967, "stars": 4.5, "schools": ["University of Waterloo"], "open": true, "categories": [], "photo_url": "http://s3-media2.ak.yelpcdn.com/bphoto/8gNHXNK1ZbUT-v62LQzrLA/ms.jpg"}, {"city": "Waterloo", "review_count": 2, "name": "McDonald's Restaurants", "neighborhoods": [], "url": "http://www.yelp.ca/biz/mcdonalds-restaurants-waterloo-4", "type": "business", "business_id": "GLNK91GFAdnQxtKdTBEifA", "full_address": "362 King Street N\nWaterloo, ON N2J 2Z2", "latitude": 43.4816905, "state": "ON", "longitude": -80.5261043, "stars": 3.0, "schools": ["University of Waterloo"], "open": true, "categories": ["Fast Food", "Restaurants"], "photo_url": "http://s3-media1.ak.yelpcdn.com/bphoto/17JOA9ByIQsXNTKAg592wQ/ms.jpg"}, {"city": "Waterloo", "review_count": 2, "name": "Giggle Life Baby Products", "neighborhoods": [], "url": "http://www.yelp.ca/biz/giggle-life-baby-products-waterloo", "type": "business", "business_id": "EmPTIE06NrbctV47oLD2EQ", "full_address": "341 Westvale Dr\nWaterloo, ON N2T 2M3", "latitude": 43.4416361, "state": "ON", "longitude": -80.5577351, "stars": 4.5, "schools": ["University of Waterloo"], "open": true, "categories": ["Shopping", "Baby Gear & Furniture"], "photo_url": "http://s3-media1.ak.yelpcdn.com/assets/2/www/img/924a6444ca6c/gfx/blank_biz_medium.gif"}, {"city": "Waterloo", "review_count": 4, "name": "Raintree Cafe", "neighborhoods": [], "url": "http://www.yelp.ca/biz/raintree-cafe-waterloo", "type": "business", "business_id": "e_ZvOsmh4oXUL7HDXnbQoQ", "full_address": "220 King Street N\nWaterloo, ON N2J 2Y7", "latitude": 43.4752375, "state": "ON", "longitude": -80.5243892, "stars": 4.5, "schools": ["University of Waterloo"], "open": true, "categories": ["Gastropubs", "Restaurants"], "photo_url": "http://s3-media1.ak.yelpcdn.com/assets/2/www/img/924a6444ca6c/gfx/blank_biz_medium.gif"}, {"city": "Waterloo", "review_count": 2, "name": "Chainsaw", "neighborhoods": [], "url": "http://www.yelp.ca/biz/chainsaw-waterloo", "type": "business", "business_id": "W-NvnFvKNlbF4H_u3EmbDQ", "full_address": "28 King Street N\nWaterloo, ON N2J 2W6", "latitude": 43.4659632, "state": "ON", "longitude": -80.5225307, "stars": 4.0, "schools": ["University of Waterloo"], "open": true, "categories": ["Dive Bars", "Bars", "Nightlife"], "photo_url": "http://s3-media1.ak.yelpcdn.com/bphoto/Uc2GJu79LWqIgemoApHJqg/ms.jpg"}, {"city": "Waterloo", "review_count": 8, "name": "Ethel's Lounge", "neighborhoods": [], "url": "http://www.yelp.ca/biz/ethels-lounge-waterloo", "type": "business", "business_id": "ptq3pjCo_9_3ySob_GybXA", "full_address": "114 King St N\nWaterloo, ON N2J 2X6", "latitude": 43.4691383, "state": "ON", "longitude": -80.5232877, "stars": 4.0, "schools": ["University of Waterloo"], "open": true, "categories": ["Bars", "Restaurants", "Nightlife", "Lounges", "Tex-Mex"], "photo_url": "http://s3-media1.ak.yelpcdn.com/bphoto/yWAThdBwF4HlYEwIZxfFMw/ms.jpg"}, {"city": "Waterloo", "review_count": 2, "name": "Zehrs Markets", "neighborhoods": [], "url": "http://www.yelp.ca/biz/zehrs-markets-waterloo", "type": "business", "business_id": "VwPvGpmG4G90oIhwR7RKsg", "full_address": "450 Erb St W\nWaterloo, ON N2T 1H4", "latitude": 43.452243, "state": "ON", "longitude": -80.555717, "stars": 4.0, "schools": ["University of Waterloo"], "open": true, "categories": ["Food", "Grocery"], "photo_url": "http://s3-media4.ak.yelpcdn.com/bphoto/-PHid3-cCkeNOjsXU0IQIQ/ms.jpg"}, {"city": "Kitchener", "review_count": 5, "name": "Cora's Breakfast & Lunch", "neighborhoods": [], "url": "http://www.yelp.ca/biz/coras-breakfast-and-lunch-kitchener", "type": "business", "business_id": "5u43Oyn9sqgIq9ptPOGaSg", "full_address": "725 Ottawa Street South\nSuite 10\nKitchener, ON N2E 1B6", "latitude": 43.4252887, "state": "ON", "longitude": -80.4836033, "stars": 3.5, "schools": ["University of Waterloo"], "open": true, "categories": ["Breakfast & Brunch", "Restaurants"], "photo_url": "http://s3-media4.ak.yelpcdn.com/bphoto/a66BjppIdtiuVSPZbY350A/ms.jpg"}, {"city": "Kitchener", "review_count": 2, "name": "Sushi Boat Japanese Cuisine & Sushi Bar", "neighborhoods": [], "url": "http://www.yelp.ca/biz/sushi-boat-japanese-cuisine-and-sushi-bar-kitchener-2", "type": "business", "business_id": "bRtTiZw_5fTK0m3RT0ja4A", "full_address": "4-465 Highland Rd W\nKitchener, ON N2M 3C6", "latitude": 43.43606, "state": "ON", "longitude": -80.5135119, "stars": 2.0, "schools": ["University of Waterloo"], "open": true, "categories": ["Sushi Bars", "Japanese", "Restaurants"], "photo_url": "http://s3-media4.ak.yelpcdn.com/bphoto/gdr2jK9LEiuMstA-g8LE2g/ms.jpg"}, {"city": "Waterloo", "review_count": 2, "name": "Iron Chef", "neighborhoods": [], "url": "http://www.yelp.ca/biz/iron-chef-waterloo", "type": "business", "business_id": "gGkj-IQ1-7t4vXi5aMUycw", "full_address": "170 University Ave.\nWaterloo, ON N2L", "latitude": 43.472294, "state": "ON", "longitude": -80.538572, "stars": 3.0, "schools": ["University of Waterloo"], "open": true, "categories": ["Korean", "Japanese", "Restaurants"], "photo_url": "http://s3-media1.ak.yelpcdn.com/bphoto/T7hWDnG7sxdM54-xXYZT2w/ms.jpg"}, {"city": "Kitchener", "review_count": 3, "name": "The Little Bean Coffee Bar", "neighborhoods": [], "url": "http://www.yelp.ca/biz/the-little-bean-coffee-bar-kitchener", "type": "business", "business_id": "hnMMIRkc9dsfRPzGYS3BVQ", "full_address": "417 King Street W\nUnit B1\nKitchener, ON N2G 1C2", "latitude": 43.4525061, "state": "ON", "longitude": -80.4971238, "stars": 3.5, "schools": ["University of Waterloo"], "open": true, "categories": ["Food", "Coffee & Tea", "Sandwiches", "Restaurants"], "photo_url": "http://s3-media1.ak.yelpcdn.com/bphoto/AP1HP5lVVR3PzEwFjDKTvQ/ms.jpg"}, {"city": "Kitchener", "review_count": 4, "name": "Northern Thai", "neighborhoods": [], "url": "http://www.yelp.ca/biz/northern-thai-kitchener", "type": "business", "business_id": "90Mav75Qyqv2qRYKCxrTEg", "full_address": "95 Queen St S\nKitchener, ON N2G 1W1", "latitude": 43.4486622, "state": "ON", "longitude": -80.4902447, "stars": 4.5, "schools": ["University of Waterloo"], "open": true, "categories": ["Thai", "Restaurants"], "photo_url": "http://s3-media3.ak.yelpcdn.com/bphoto/8d98TrOLIyCfx-zRSD05Mg/ms.jpg"}, {"city": "Waterloo", "review_count": 2, "name": "New York Fries", "neighborhoods": [], "url": "http://www.yelp.ca/biz/new-york-fries-waterloo", "type": "business", "business_id": "TO5uZ9jHB8-DKlf3nrL9Gw", "full_address": "550 King St N\nWaterloo, ON", "latitude": 43.4980824, "state": "ON", "longitude": -80.5274971, "stars": 3.0, "schools": ["University of Waterloo"], "open": true, "categories": ["American (Traditional)", "Restaurants"], "photo_url": "http://s3-media1.ak.yelpcdn.com/bphoto/ig2DTOZjlE0Cj8tEtRNd5w/ms.jpg"}, {"city": "Waterloo", "review_count": 3, "name": "Gina's Health & Beauty Spa", "neighborhoods": [], "url": "http://www.yelp.ca/biz/ginas-health-and-beauty-spa-waterloo", "type": "business", "business_id": "uriS1dvMVuTnCAnIAIPTMw", "full_address": "6 Regina St N\nWaterloo, ON N2J 2Z8", "latitude": 43.4656867, "state": "ON", "longitude": -80.5211342, "stars": 4.0, "schools": ["University of Waterloo"], "open": true, "categories": ["Skin Care", "Day Spas", "Massage", "Beauty and Spas"], "photo_url": "http://s3-media4.ak.yelpcdn.com/bphoto/02kpks-SnBelAMeD3w9_Kg/ms.jpg"}, {"city": "Kitchener", "review_count": 3, "name": "Omega Family Restaurant", "neighborhoods": [], "url": "http://www.yelp.ca/biz/omega-family-restaurant-kitchener", "type": "business", "business_id": "Zynj6SK05RlFpbAABO5n0A", "full_address": "685 Fischer Hallman Rd\nKitchener, ON N2E 4E9", "latitude": 43.4153097, "state": "ON", "longitude": -80.509896, "stars": 3.5, "schools": ["University of Waterloo"], "open": true, "categories": ["Greek", "Breakfast & Brunch", "Italian", "Restaurants"], "photo_url": "http://s3-media3.ak.yelpcdn.com/bphoto/VofUmcS42O68WxBSIxmzGA/ms.jpg"}, {"city": "Kitchener", "review_count": 4, "name": "Arabesque Cafe", "neighborhoods": [], "url": "http://www.yelp.ca/biz/arabesque-cafe-kitchener-2", "type": "business", "business_id": "GbgUO9p2O7-7m6eAuECA6A", "full_address": "869 Victoria Street N\nKitchener, ON N2B 3C3", "latitude": 43.4635698, "state": "ON", "longitude": -80.4664499, "stars": 3.5, "schools": ["University of Waterloo"], "open": true, "categories": ["Middle Eastern", "Restaurants"], "photo_url": "http://s3-media1.ak.yelpcdn.com/bphoto/BOLshqqUMqVi-CVHlcmFqw/ms.jpg"}, {"city": "Kitchener", "review_count": 2, "name": "Holy Guacamole Fresh Mex", "neighborhoods": [], "url": "http://www.yelp.ca/biz/holy-guacamole-fresh-mex-kitchener", "type": "business", "business_id": "PESeDko8CLufvzIS0SyDCQ", "full_address": "14 Duke Street E\nKitchener, ON N2H 2L7", "latitude": 43.4506663, "state": "ON", "longitude": -80.4878059, "stars": 2.0, "schools": ["University of Waterloo"], "open": true, "categories": ["Mexican", "Restaurants"], "photo_url": "http://s3-media4.ak.yelpcdn.com/bphoto/jvZh4OJ3-lao0NpuzE6MPw/ms.jpg"}, {"city": "Waterloo", "review_count": 7, "name": "East Side Mario's", "neighborhoods": [], "url": "http://www.yelp.ca/biz/east-side-marios-waterloo-2", "type": "business", "business_id": "PVU8GnwQ5y5Ts10O7vzySw", "full_address": "170 University Avenue West\nWaterloo, ON N2L 3E9", "latitude": 43.472294, "state": "ON", "longitude": -80.538572, "stars": 2.5, "schools": ["University of Waterloo"], "open": true, "categories": ["Italian", "Restaurants"], "photo_url": "http://s3-media3.ak.yelpcdn.com/bphoto/MF763U1qp_uoXZiWv8tsYA/ms.jpg"}, {"city": "Kitchener", "review_count": 3, "name": "The Duke Street Muse", "neighborhoods": [], "url": "http://www.yelp.ca/biz/the-duke-street-muse-kitchener", "type": "business", "business_id": "frs7gMfgKovZ6PUTs4Pk0w", "full_address": "6 Duke St E\nKitchener, ON N2H 1A3", "latitude": 43.4508538, "state": "ON", "longitude": -80.4879908, "stars": 4.5, "schools": ["University of Waterloo"], "open": true, "categories": ["Vegetarian", "Vegan", "Restaurants"], "photo_url": "http://s3-media3.ak.yelpcdn.com/bphoto/CHV53aBi9YvEmzdeb76_EQ/ms.jpg"}, {"city": "Waterloo", "review_count": 6, "name": "Margarita's", "neighborhoods": [], "url": "http://www.yelp.ca/biz/margaritas-waterloo", "type": "business", "business_id": "gneNNSYx2rz8KnbzyOMarg", "full_address": "4 King Street N\nWaterloo, ON N2J 2W7", "latitude": 43.465331, "state": "ON", "longitude": -80.5222708, "stars": 2.5, "schools": ["University of Waterloo"], "open": true, "categories": ["Mexican", "Restaurants"], "photo_url": "http://s3-media1.ak.yelpcdn.com/assets/2/www/img/924a6444ca6c/gfx/blank_biz_medium.gif"}, {"city": "Victoria Park", "review_count": 3, "name": "Downtown Kitchener Ribfest & Craft Beer Show", "neighborhoods": [], "url": "http://www.yelp.ca/biz/downtown-kitchener-ribfest-and-craft-beer-show-victoria-park", "type": "business", "business_id": "NlvGAhc1gFy6DFdJl1mZkg", "full_address": "Victoria Park\nVictoria Park, ON", "latitude": 43.4473349, "state": "ON", "longitude": -80.4959114, "stars": 4.5, "schools": ["University of Waterloo"], "open": true, "categories": ["Food", "Beer, Wine & Spirits"], "photo_url": "http://s3-media1.ak.yelpcdn.com/assets/2/www/img/924a6444ca6c/gfx/blank_biz_medium.gif"}, {"city": "Waterloo", "review_count": 8, "name": "The Rude Native Bistro", "neighborhoods": [], "url": "http://www.yelp.ca/biz/the-rude-native-bistro-waterloo", "type": "business", "business_id": "7uwym0MRceSa5xY9orUkcQ", "full_address": "15 King Street S\nWaterloo, ON N2J 1N9", "latitude": 43.4646939, "state": "ON", "longitude": -80.5223045, "stars": 2.0, "schools": ["University of Waterloo"], "open": false, "categories": ["Gastropubs", "Restaurants"], "photo_url": "http://s3-media2.ak.yelpcdn.com/bphoto/2hk-R0lbCJu0S1mhFAzX4g/ms.jpg"}, {"city": "Waterloo", "review_count": 5, "name": "Sakura Island Restaurant", "neighborhoods": [], "url": "http://www.yelp.ca/biz/sakura-island-restaurant-waterloo", "type": "business", "business_id": "j20CNUG7VsV7_Ezj4bUsSg", "full_address": "255 King Street N\nWaterloo, ON N2J 4V2", "latitude": 43.4770992, "state": "ON", "longitude": -80.5256905, "stars": 3.5, "schools": ["University of Waterloo"], "open": true, "categories": ["Sushi Bars", "Japanese", "Restaurants"], "photo_url": "http://s3-media1.ak.yelpcdn.com/bphoto/qXpCqREAeLIUWvR0eOKPKg/ms.jpg"}, {"city": "Kitchener", "review_count": 3, "name": "Popeyes Louisiana Kitchen", "neighborhoods": [], "url": "http://www.yelp.ca/biz/popeyes-louisiana-kitchen-kitchener", "type": "business", "business_id": "OdiP4nKmrIuFaSqt4kcXSg", "full_address": "725 Ottawa Street South\nKitchener, ON N2M 3P5", "latitude": 43.4252792, "state": "ON", "longitude": -80.4835851, "stars": 1.5, "schools": ["University of Waterloo"], "open": true, "categories": ["Fast Food", "Restaurants"], "photo_url": "http://s3-media4.ak.yelpcdn.com/bphoto/2dRVkhPX4oQl3tm2nM3alQ/ms.jpg"}, {"city": "Waterloo", "review_count": 20, "name": "Vincenzo's", "neighborhoods": [], "url": "http://www.yelp.ca/biz/vincenzos-waterloo", "type": "business", "business_id": "GCvjfHFQfJPqJ9W2UunRhw", "full_address": "150 Caroline St S\nWaterloo, ON N2M 1P2", "latitude": 43.4586273, "state": "ON", "longitude": -80.518333, "stars": 5.0, "schools": ["University of Waterloo"], "open": true, "categories": ["Cheese Shops", "Food", "Caterers", "Specialty Food", "Delis", "Sandwiches", "Event Planning & Services", "Restaurants"], "photo_url": "http://s3-media4.ak.yelpcdn.com/bphoto/DGWowhljaeq9nd_IG13HQw/ms.jpg"}, {"city": "Kitchener", "review_count": 2, "name": "The Beer Store 4166", "neighborhoods": [], "url": "http://www.yelp.ca/biz/the-beer-store-4166-kitchener", "type": "business", "business_id": "K-vSs3Odmjz-CySE1YbzeA", "full_address": "875 Highland Road W\nKitchener, ON N2N 2Y2", "latitude": 43.4296985, "state": "ON", "longitude": -80.5268353, "stars": 4.5, "schools": ["University of Waterloo"], "open": true, "categories": ["Food", "Beer, Wine & Spirits"], "photo_url": "http://s3-media3.ak.yelpcdn.com/bphoto/nanHrZF4Kl7pIyZK8B5nxA/ms.jpg"}, {"city": "Waterloo", "review_count": 2, "name": "Mambella's", "neighborhoods": [], "url": "http://www.yelp.ca/biz/mambellas-waterloo", "type": "business", "business_id": "aFNynPMI-L7E_YyzlcqMhg", "full_address": "160 Columbia St W\nWaterloo, ON N2L 3L3", "latitude": 43.477218, "state": "ON", "longitude": -80.5415493, "stars": 4.5, "schools": ["University of Waterloo"], "open": true, "categories": ["Delis", "Italian", "Sandwiches", "Restaurants"], "photo_url": "http://s3-media2.ak.yelpcdn.com/bphoto/Uc1cnEXQojQi3S5OMkIE7w/ms.jpg"}, {"city": "Kitchener", "review_count": 2, "name": "Lisboa Bakery & Grill", "neighborhoods": [], "url": "http://www.yelp.ca/biz/lisboa-bakery-and-grill-kitchener", "type": "business", "business_id": "HQ28GzcNzeAkjB1hTS9rDw", "full_address": "1187 Fischer-Hallman Road\nKitchener, ON N2E 4K6", "latitude": 43.4068876, "state": "ON", "longitude": -80.5008087, "stars": 5.0, "schools": ["University of Waterloo"], "open": true, "categories": ["Food", "Portuguese", "Bakeries", "Restaurants"], "photo_url": "http://s3-media3.ak.yelpcdn.com/bphoto/mUuIE4tVwmIittZs7I3rZQ/ms.jpg"}, {"city": "Waterloo", "review_count": 2, "name": "Encore!", "neighborhoods": [], "url": "http://www.yelp.ca/biz/encore-waterloo", "type": "business", "business_id": "ZE3MayYRS4F4i__b7l9Hcg", "full_address": "130 King Street S\nWaterloo, ON N2J 4V1", "latitude": 43.4622913, "state": "ON", "longitude": -80.5214284, "stars": 3.5, "schools": ["University of Waterloo"], "open": true, "categories": ["American (Traditional)", "Restaurants"], "photo_url": "http://s3-media1.ak.yelpcdn.com/assets/2/www/img/924a6444ca6c/gfx/blank_biz_medium.gif"}, {"city": "Waterloo", "review_count": 3, "name": "Marbles Restaurant", "neighborhoods": [], "url": "http://www.yelp.ca/biz/marbles-restaurant-waterloo", "type": "business", "business_id": "MR-KdPaeWoKu922VHhtQcQ", "full_address": "8 William St E\nWaterloo, ON N2J 1K9", "latitude": 43.4621992, "state": "ON", "longitude": -80.5210306, "stars": 3.5, "schools": ["University of Waterloo"], "open": true, "categories": ["Bistros", "Restaurants"], "photo_url": "http://s3-media4.ak.yelpcdn.com/bphoto/xdxpSw7VC2KlA2nWjV2qNg/ms.jpg"}, {"city": "Waterloo", "review_count": 2, "name": "Angel's Family Restaurant", "neighborhoods": [], "url": "http://www.yelp.ca/biz/angels-family-restaurant-waterloo", "type": "business", "business_id": "P0ox-U4cl3F1Fi1HOWNsGw", "full_address": "190 Weber Street North\nWaterloo, ON N2J 3H5", "latitude": 43.4758781, "state": "ON", "longitude": -80.5178879, "stars": 4.5, "schools": ["University of Waterloo"], "open": true, "categories": ["Delis", "Diners", "Restaurants"], "photo_url": "http://s3-media2.ak.yelpcdn.com/bphoto/RaHFAYBpq6Y98x2RuNRm0Q/ms.jpg"}, {"city": "Waterloo", "review_count": 6, "name": "Waterloo Inn", "neighborhoods": [], "url": "http://www.yelp.ca/biz/waterloo-inn-waterloo", "type": "business", "business_id": "aVtSR5FBBNJuJcdDMfCyeg", "full_address": "475 King St N\nWaterloo, ON N2J 2Z5", "latitude": 43.49016, "state": "ON", "longitude": -80.529206, "stars": 3.0, "schools": ["University of Waterloo"], "open": true, "categories": ["Hotels & Travel", "Event Planning & Services", "Hotels"], "photo_url": "http://s3-media1.ak.yelpcdn.com/bphoto/Uiz3LGxr8X0SY288Sc2tsg/ms.jpg"}, {"city": "Waterloo", "review_count": 3, "name": "Baker's Cove Seafood Restaurant", "neighborhoods": [], "url": "http://www.yelp.ca/biz/bakers-cove-seafood-restaurant-waterloo", "type": "business", "business_id": "Q_-zh8OKJ5lqkna2m-1qXQ", "full_address": "355 Erb St W\nWaterloo, ON N2L 1W4", "latitude": 43.4546961, "state": "ON", "longitude": -80.546851, "stars": 4.5, "schools": ["University of Waterloo"], "open": true, "categories": ["Seafood", "Restaurants"], "photo_url": "http://s3-media3.ak.yelpcdn.com/bphoto/EAU0vsfaJTdql0qdt-H1dQ/ms.jpg"}, {"city": "Kitchener", "review_count": 2, "name": "Pho dau Bo", "neighborhoods": [], "url": "http://www.yelp.ca/biz/pho-dau-bo-kitchener-2", "type": "business", "business_id": "FqcuvQF-OvKKdJ0RLdos8A", "full_address": "685 Fischer-Hallman Rd\nUnit G\nKitchener, ON N2E 4E9", "latitude": 43.415624, "state": "ON", "longitude": -80.5107864, "stars": 3.0, "schools": ["University of Waterloo"], "open": true, "categories": ["Restaurants", "Vietnamese"], "photo_url": "http://s3-media1.ak.yelpcdn.com/bphoto/HVRjpV05xx507LEYOsyMlA/ms.jpg"}, {"city": "Kitchener", "review_count": 5, "name": "Concordia Club", "neighborhoods": [], "url": "http://www.yelp.ca/biz/concordia-club-kitchener", "type": "business", "business_id": "fdO9p0nIhrI6aIR4WHgq7A", "full_address": "429 Ottawa St S\nKitchener, ON N2M 3P6", "latitude": 43.4315202, "state": "ON", "longitude": -80.4794246, "stars": 3.5, "schools": ["University of Waterloo"], "open": true, "categories": ["German", "Event Planning & Services", "Venues & Event Spaces", "Restaurants"], "photo_url": "http://s3-media3.ak.yelpcdn.com/bphoto/Iad-QvgcHVntIGJ0Neetqg/ms.jpg"}, {"city": "Waterloo", "review_count": 5, "name": "McMullans On King", "neighborhoods": [], "url": "http://www.yelp.ca/biz/mcmullans-on-king-waterloo", "type": "business", "business_id": "Nbm2XUauONBPRXjVIFaREw", "full_address": "56 King St N\nWaterloo, ON N2J 2X1", "latitude": 43.4670204, "state": "ON", "longitude": -80.5227058, "stars": 4.0, "schools": ["University of Waterloo"], "open": true, "categories": ["Pubs", "Bars", "Nightlife"], "photo_url": "http://s3-media2.ak.yelpcdn.com/bphoto/S5qy9wr4oRq2JcMSu8dLdg/ms.jpg"}, {"city": "Kitchener", "review_count": 3, "name": "The Lancaster Smokehouse", "neighborhoods": [], "url": "http://www.yelp.ca/biz/the-lancaster-smokehouse-kitchener", "type": "business", "business_id": "sovw8zH8Pa0VctrVSjaILw", "full_address": "574 Lancaster Street  West\nKitchener, ON N2K 1M3", "latitude": 43.4797015, "state": "ON", "longitude": -80.48426, "stars": 3.0, "schools": ["University of Waterloo"], "open": true, "categories": ["Barbeque", "Restaurants"], "photo_url": "http://s3-media2.ak.yelpcdn.com/bphoto/TfEU9G9IiiVZKSsIEB9iGg/ms.jpg"}, {"city": "Waterloo", "review_count": 6, "name": "Sushi 99", "neighborhoods": [], "url": "http://www.yelp.ca/biz/sushi-99-waterloo-2", "type": "business", "business_id": "qlYBxzBEoP8ETofilw6yPA", "full_address": "36 Northfield Dr E\nWaterloo, ON N2L 6A1", "latitude": 43.502488, "state": "ON", "longitude": -80.53118, "stars": 3.5, "schools": ["University of Waterloo"], "open": true, "categories": ["Japanese", "Restaurants"], "photo_url": "http://s3-media1.ak.yelpcdn.com/bphoto/hM_mbb7GonkD-SwObdb5IQ/ms.jpg"}, {"city": "Woolwich", "review_count": 3, "name": "Benjamin's Restaurant & Inn", "neighborhoods": [], "url": "http://www.yelp.ca/biz/benjamins-restaurant-and-inn-woolwich", "type": "business", "business_id": "6Q7CWOOe6Ab9-nVN4TOeDg", "full_address": "1430 King St N\nWoolwich, ON N0B 2N0", "latitude": 43.5401962, "state": "ON", "longitude": -80.5531783, "stars": 3.5, "schools": ["University of Waterloo"], "open": true, "categories": ["American (Traditional)", "Restaurants"], "photo_url": "http://s3-media1.ak.yelpcdn.com/bphoto/XlbOHwlWLELqI4lDCPvk3w/ms.jpg"}, {"city": "Waterloo", "review_count": 15, "name": "Wildcraft", "neighborhoods": [], "url": "http://www.yelp.ca/biz/wildcraft-waterloo", "type": "business", "business_id": "v5nZgLkiE2OHbRnYkvrbDQ", "full_address": "425 King St N\nWaterloo, ON N2J 2Z5", "latitude": 43.4866257, "state": "ON", "longitude": -80.5276539, "stars": 3.0, "schools": ["University of Waterloo"], "open": true, "categories": ["American (Traditional)", "Italian", "Restaurants"], "photo_url": "http://s3-media1.ak.yelpcdn.com/bphoto/c-x_eXvQ7OPygCtgQ6XmVw/ms.jpg"}, {"city": "Waterloo", "review_count": 4, "name": "Cora's", "neighborhoods": [], "url": "http://www.yelp.ca/biz/coras-waterloo", "type": "business", "business_id": "SEOwd0srJ9w-66Kaj6a0hA", "full_address": "75 King St S\nWaterloo, ON N2J 1P2", "latitude": 43.462942, "state": "ON", "longitude": -80.523638, "stars": 3.5, "schools": ["University of Waterloo"], "open": true, "categories": ["Breakfast & Brunch", "Diners", "Restaurants"], "photo_url": "http://s3-media3.ak.yelpcdn.com/bphoto/Zmc6Fx72j7zp2i0g8yGxIQ/ms.jpg"}, {"city": "Waterloo", "review_count": 3, "name": "Lotus Tea House", "neighborhoods": [], "url": "http://www.yelp.ca/biz/lotus-tea-house-waterloo", "type": "business", "business_id": "SmfrGdOBx0qcQRC2BOYSZw", "full_address": "79 Regina Street North\nWaterloo, ON N2J 3A7", "latitude": 43.4697612, "state": "ON", "longitude": -80.5224956, "stars": 5.0, "schools": ["University of Waterloo"], "open": true, "categories": ["Food", "Tea Rooms", "Desserts"], "photo_url": "http://s3-media1.ak.yelpcdn.com/bphoto/ltrCYgZlkuqiPUFEXo3CKg/ms.jpg"}, {"city": "Kitchener", "review_count": 3, "name": "Fireside Deli & Family Restaurant", "neighborhoods": [], "url": "http://www.yelp.ca/biz/fireside-deli-and-family-restaurant-kitchener", "type": "business", "business_id": "fyccrRVc8Gjx2TV7WmtFyw", "full_address": "800 Ottawa Street S\nKitchener, ON N2E 3Z4", "latitude": 43.4228669, "state": "ON", "longitude": -80.4886646, "stars": 2.0, "schools": ["University of Waterloo"], "open": true, "categories": ["Delis", "Sandwiches", "Restaurants"], "photo_url": "http://s3-media1.ak.yelpcdn.com/bphoto/C_8agc1EAlH7VPr8OLRRaQ/ms.jpg"}, {"city": "Waterloo", "review_count": 3, "name": "Koh I-Noor Restaurant", "neighborhoods": [], "url": "http://www.yelp.ca/biz/koh-i-noor-restaurant-waterloo", "type": "business", "business_id": "4tcrfrIZAHwAFRpbY45PqQ", "full_address": "465 Phillip St\nWaterloo, ON N2L 6C7", "latitude": 43.4844189, "state": "ON", "longitude": -80.5408262, "stars": 2.5, "schools": ["University of Waterloo"], "open": true, "categories": ["Indian", "Caterers", "Middle Eastern", "Event Planning & Services", "Pakistani", "Restaurants"], "photo_url": "http://s3-media1.ak.yelpcdn.com/bphoto/AMvETAQIdjxi9_qXMHyC4w/ms.jpg"}, {"city": "Waterloo", "review_count": 4, "name": "Princess Cafe", "neighborhoods": [], "url": "http://www.yelp.ca/biz/princess-cafe-waterloo-2", "type": "business", "business_id": "ZF6u21h8tMJX_tNAlpJfKg", "full_address": "46 King St N\nWaterloo, ON N2J 2W8", "latitude": 43.4665271, "state": "ON", "longitude": -80.5225925, "stars": 4.5, "schools": ["University of Waterloo"], "open": true, "categories": ["Food", "Coffee & Tea", "Sandwiches", "Restaurants"], "photo_url": "http://s3-media1.ak.yelpcdn.com/bphoto/aNuTUPFdmxLjOkXRp2Z4mA/ms.jpg"}, {"city": "Waterloo", "review_count": 2, "name": "Viet Sun", "neighborhoods": [], "url": "http://www.yelp.ca/biz/viet-sun-waterloo", "type": "business", "business_id": "efhzFCc7dVySVjk-3RnvYA", "full_address": "17 Erb St E\nWaterloo, ON N2J 1L4", "latitude": 43.4652985, "state": "ON", "longitude": -80.521486, "stars": 2.5, "schools": ["University of Waterloo"], "open": true, "categories": ["Thai", "Restaurants", "Vietnamese"], "photo_url": "http://s3-media3.ak.yelpcdn.com/bphoto/7fp6H3JnK_KyViJM1q17UQ/ms.jpg"}, {"city": "Kitchener", "review_count": 7, "name": "Niko Niko Roll & Sushi", "neighborhoods": [], "url": "http://www.yelp.ca/biz/niko-niko-roll-and-sushi-kitchener", "type": "business", "business_id": "OzFROhgxsBgg5JhcfiHpAA", "full_address": "20 King Street East\nKitchener, ON N2G 3X1", "latitude": 43.4497397, "state": "ON", "longitude": -80.4887564, "stars": 4.0, "schools": ["University of Waterloo"], "open": true, "categories": ["Sushi Bars", "Restaurants"], "photo_url": "http://s3-media2.ak.yelpcdn.com/bphoto/flnMYGXEhNkiWFWr8tW50g/ms.jpg"}, {"city": "Waterloo", "review_count": 2, "name": "Campus Pizza", "neighborhoods": [], "url": "http://www.yelp.ca/biz/campus-pizza-waterloo", "type": "business", "business_id": "iFJnjnU7nhK9DddjDFSAgw", "full_address": "160 Av University O\nWaterloo, ON N2L 3E9", "latitude": 43.4718821, "state": "ON", "longitude": -80.5367967, "stars": 2.0, "schools": ["University of Waterloo"], "open": true, "categories": ["Pizza", "Restaurants"], "photo_url": "http://s3-media4.ak.yelpcdn.com/bphoto/ndZJwjyp176eMh-5PVRmwA/ms.jpg"}, {"city": "Kitchener", "review_count": 3, "name": "The Silver Spoon Fine Chocolates", "neighborhoods": [], "url": "http://www.yelp.ca/biz/the-silver-spoon-fine-chocolates-kitchener", "type": "business", "business_id": "SxZGPNT0Vtc7rywVrUGiGA", "full_address": "217 King Street W\nKitchener, ON N2G 1B1", "latitude": 43.4512852, "state": "ON", "longitude": -80.4931722, "stars": 4.5, "schools": ["University of Waterloo"], "open": true, "categories": ["Specialty Food", "Food", "Ice Cream & Frozen Yogurt", "Chocolatiers and Shops"], "photo_url": "http://s3-media4.ak.yelpcdn.com/bphoto/f94AN2UXga6Lmfjo7GcjpA/ms.jpg"}, {"city": "Waterloo", "review_count": 2, "name": "Fox & Fiddle", "neighborhoods": [], "url": "http://www.yelp.ca/biz/fox-and-fiddle-waterloo", "type": "business", "business_id": "0X3fEGJG70enUaQweiox0g", "full_address": "77 King Street N\nWaterloo, ON N2J 2X3", "latitude": 43.4678574, "state": "ON", "longitude": -80.5232609, "stars": 3.5, "schools": ["University of Waterloo"], "open": true, "categories": ["Bars", "Nightlife"], "photo_url": "http://s3-media4.ak.yelpcdn.com/bphoto/wF2NIZC99Zoz9g5VDz5img/ms.jpg"}, {"city": "Kitchener", "review_count": 4, "name": "Starbucks Coffee Company", "neighborhoods": [], "url": "http://www.yelp.ca/biz/starbucks-coffee-company-kitchener", "type": "business", "business_id": "uH-PrUAsrNZNOoNRo9hIbw", "full_address": "1400 Ottawa St S\nKitchener, ON N2E 4E2", "latitude": 43.416715, "state": "ON", "longitude": -80.5133222, "stars": 3.5, "schools": ["University of Waterloo"], "open": true, "categories": ["Food", "Coffee & Tea"], "photo_url": "http://s3-media3.ak.yelpcdn.com/bphoto/yIJUpQ5nLkRFfM4CNIiYjA/ms.jpg"}, {"city": "Waterloo", "review_count": 6, "name": "China Garden Restaurant", "neighborhoods": [], "url": "http://www.yelp.ca/biz/china-garden-restaurant-waterloo", "type": "business", "business_id": "hOEfdrIl7D5mv-4p2Q4x_A", "full_address": "31 Av University E\nWaterloo, ON N2J 2V9", "latitude": 43.4766405, "state": "ON", "longitude": -80.5231107, "stars": 4.0, "schools": ["University of Waterloo"], "open": true, "categories": ["Specialty Food", "Ethnic Food", "Food", "Chinese", "Restaurants"], "photo_url": "http://s3-media3.ak.yelpcdn.com/bphoto/Bhwt1NIeWQRyRiiSocg2ZQ/ms.jpg"}, {"city": "Waterloo", "review_count": 3, "name": "Crystal Palace Restaurant", "neighborhoods": [], "url": "http://www.yelp.ca/biz/crystal-palace-restaurant-waterloo", "type": "business", "business_id": "v4VD3Uyf-d_JQJkIfD4c0g", "full_address": "10 King St S\nWaterloo, ON N2J 1N8", "latitude": 43.4649034, "state": "ON", "longitude": -80.5221257, "stars": 3.5, "schools": ["University of Waterloo"], "open": true, "categories": ["Specialty Food", "Ethnic Food", "Food", "Chinese", "Restaurants"], "photo_url": "http://s3-media2.ak.yelpcdn.com/bphoto/qFMqb6vcfD0CjWWTyzps7Q/ms.jpg"}, {"city": "Kitchener", "review_count": 2, "name": "Kitchener Auto Club", "neighborhoods": [], "url": "http://www.yelp.ca/biz/kitchener-auto-club-kitchener", "type": "business", "business_id": "CT0dkF0eK30nLfnXgj3A0A", "full_address": "1305 Victoria St N\nKitchener, ON N2B", "latitude": 43.469156, "state": "ON", "longitude": -80.448757, "stars": 5.0, "schools": ["University of Waterloo"], "open": true, "categories": ["Auto Repair", "Automotive", "Oil Change Stations"], "photo_url": "http://s3-media1.ak.yelpcdn.com/assets/2/www/img/924a6444ca6c/gfx/blank_biz_medium.gif"}, {"city": "Waterloo", "review_count": 2, "name": "Smoke's Poutinerie", "neighborhoods": [], "url": "http://www.yelp.ca/biz/smokes-poutinerie-waterloo", "type": "business", "business_id": "8Z9BmuMj5PmQvfTyjtd4DA", "full_address": "255 King Street N\nUnit 15\nWaterloo, ON N2J 4V2", "latitude": 43.4770992, "state": "ON", "longitude": -80.5256905, "stars": 4.5, "schools": ["University of Waterloo"], "open": true, "categories": ["Poutineries", "Fast Food", "Canadian (New)", "Restaurants"], "photo_url": "http://s3-media3.ak.yelpcdn.com/bphoto/Q-x6HG0NG5INd4o3VmKnUw/ms.jpg"}, {"city": "Kitchener", "review_count": 2, "name": "Bread Heads", "neighborhoods": [], "url": "http://www.yelp.ca/biz/bread-heads-kitchener", "type": "business", "business_id": "7tDdeBuRHwA8ECqv_24iKQ", "full_address": "16 Duke Street E\nKitchener, ON N2H 2G8", "latitude": 43.4507304, "state": "ON", "longitude": -80.4876913, "stars": 4.5, "schools": ["University of Waterloo"], "open": true, "categories": ["Food", "Bakeries"], "photo_url": "http://s3-media1.ak.yelpcdn.com/assets/2/www/img/924a6444ca6c/gfx/blank_biz_medium.gif"}, {"city": "Kitchener", "review_count": 4, "name": "Nara Sushi Restaurant", "neighborhoods": [], "url": "http://www.yelp.ca/biz/nara-sushi-restaurant-kitchener", "type": "business", "business_id": "ll5Pp-bNYeWslixHXW5msg", "full_address": "685 Fischer Hallman Rd\nKitchener, ON N2E 4R9", "latitude": 43.415624, "state": "ON", "longitude": -80.5107864, "stars": 4.0, "schools": ["University of Waterloo"], "open": true, "categories": ["Sushi Bars", "Japanese", "Restaurants"], "photo_url": "http://s3-media2.ak.yelpcdn.com/bphoto/Pobx32ZMAEd2LnB2Jco72A/ms.jpg"}, {"city": "Waterloo", "review_count": 5, "name": "Chen's Oriental Cuisine", "neighborhoods": [], "url": "http://www.yelp.ca/biz/chens-oriental-cuisine-waterloo", "type": "business", "business_id": "oJimNsxQ1eFqXec1vBUGZA", "full_address": "170 University Avenue West\nSuite 19\nWaterloo, ON N2L 3E9", "latitude": 43.4715469, "state": "ON", "longitude": -80.5374167, "stars": 4.0, "schools": ["University of Waterloo"], "open": true, "categories": ["Taiwanese", "Restaurants"], "photo_url": "http://s3-media1.ak.yelpcdn.com/assets/2/www/img/924a6444ca6c/gfx/blank_biz_medium.gif"}, {"city": "Waterloo", "review_count": 6, "name": "Tomu Sushi", "neighborhoods": [], "url": "http://www.yelp.ca/biz/tomu-sushi-waterloo", "type": "business", "business_id": "nYy4Ls_AaSmKC5T9Urr3vQ", "full_address": "347 Erb St W\nWaterloo, ON N2L", "latitude": 43.4549961, "state": "ON", "longitude": -80.546187, "stars": 4.0, "schools": ["University of Waterloo"], "open": true, "categories": ["Korean", "Japanese", "Restaurants"], "photo_url": "http://s3-media2.ak.yelpcdn.com/bphoto/qUgL5lNZao59AZkkCSslNQ/ms.jpg"}, {"city": "Kitchener", "review_count": 23, "name": "Ye's Sushi", "neighborhoods": [], "url": "http://www.yelp.ca/biz/yes-sushi-kitchener", "type": "business", "business_id": "FUCCnOul0I8vE_UrCxRxZw", "full_address": "103 King St W\nKitchener, ON N2G 1A7", "latitude": 43.450536, "state": "ON", "longitude": -80.4910465, "stars": 3.0, "schools": ["University of Waterloo"], "open": true, "categories": ["Sushi Bars", "Restaurants"], "photo_url": "http://s3-media4.ak.yelpcdn.com/bphoto/79Giyth86B3VvFsWTjcCdw/ms.jpg"}, {"city": "Waterloo", "review_count": 3, "name": "Death Valley's Little Brother", "neighborhoods": [], "url": "http://www.yelp.ca/biz/death-valleys-little-brother-waterloo", "type": "business", "business_id": "iLlCHoUhDd2n3psxMevFBw", "full_address": "84 King Street North\nWaterloo, ON N2J 2X2", "latitude": 43.4679501, "state": "ON", "longitude": -80.523114, "stars": 5.0, "schools": ["University of Waterloo"], "open": true, "categories": ["Food", "Beer, Wine & Spirits", "Coffee & Tea", "Bars", "Nightlife"], "photo_url": "http://s3-media1.ak.yelpcdn.com/bphoto/JrZXSa5TqLcLTIbDwTuHKw/ms.jpg"}, {"city": "Waterloo", "review_count": 2, "name": "Wilf's Restaurant and Pub", "neighborhoods": [], "url": "http://www.yelp.ca/biz/wilfs-restaurant-and-pub-waterloo", "type": "business", "business_id": "-9-apN9r_OVq5-N2AuzERQ", "full_address": "75 University Ave W\nWaterloo, ON N2L 3C5", "latitude": 43.474917, "state": "ON", "longitude": -80.527961, "stars": 4.0, "schools": ["University of Waterloo"], "open": true, "categories": ["Pubs", "Bars", "Nightlife"], "photo_url": "http://s3-media4.ak.yelpcdn.com/bphoto/ukWpSdAqLH-8W3q9vyUA0Q/ms.jpg"}, {"city": "Waterloo", "review_count": 4, "name": "Johnny Fresco", "neighborhoods": [], "url": "http://www.yelp.ca/biz/johnny-fresco-waterloo", "type": "business", "business_id": "HIsY6T7YhkgRRCVZ6dPBIA", "full_address": "244 Weber St N\nWaterloo, ON N2J 3H5", "latitude": 43.4777254, "state": "ON", "longitude": -80.5195815, "stars": 3.5, "schools": ["University of Waterloo"], "open": true, "categories": ["Burgers", "Fast Food", "Restaurants"], "photo_url": "http://s3-media1.ak.yelpcdn.com/bphoto/_1g8jP8isH3qVGHk8O8DIg/ms.jpg"}, {"city": "Waterloo", "review_count": 9, "name": "The Duke of Wellington", "neighborhoods": [], "url": "http://www.yelp.ca/biz/the-duke-of-wellington-waterloo", "type": "business", "business_id": "fXxfPplJxlxZE7uXoKjO7w", "full_address": "33 Erb Street W\nWaterloo, ON N2L 1S8", "latitude": 43.4648096, "state": "ON", "longitude": -80.5238819, "stars": 3.5, "schools": ["University of Waterloo"], "open": true, "categories": ["Nightlife"], "photo_url": "http://s3-media2.ak.yelpcdn.com/bphoto/vNBY3ml1xEyQSr37aJGAMg/ms.jpg"}, {"city": "Kitchener", "review_count": 12, "name": "Taste of Philly Cheesesteak", "neighborhoods": [], "url": "http://www.yelp.ca/biz/taste-of-philly-cheesesteak-kitchener", "type": "business", "business_id": "O0-MJj0x7BABx4FYf8vP7g", "full_address": "98 King St W\nKitchener, ON N2G 1A6", "latitude": 43.4505523, "state": "ON", "longitude": -80.4909864, "stars": 4.0, "schools": ["University of Waterloo"], "open": true, "categories": ["American (Traditional)", "Sandwiches", "Barbeque", "Restaurants"], "photo_url": "http://s3-media2.ak.yelpcdn.com/bphoto/Sy6Brd8LqMp2gNfuZkVR7w/ms.jpg"}, {"city": "Waterloo", "review_count": 3, "name": "Best Western St Jacob's Country Inn", "neighborhoods": [], "url": "http://www.yelp.ca/biz/best-western-st-jacobs-country-inn-waterloo", "type": "business", "business_id": "e_HhKmGO1OVMgSpVBnoboA", "full_address": "50 Benjamin Road\nWaterloo, ON N2V 2J9", "latitude": 43.5065903, "state": "ON", "longitude": -80.5546973, "stars": 4.0, "schools": ["University of Waterloo"], "open": true, "categories": ["Hotels & Travel", "Event Planning & Services", "Hotels"], "photo_url": "http://s3-media4.ak.yelpcdn.com/bphoto/6TG5LORDbqZGTlL8tCsFag/ms.jpg"}, {"city": "Waterloo", "review_count": 2, "name": "Honey Bake Shop", "neighborhoods": [], "url": "http://www.yelp.ca/biz/honey-bake-shop-waterloo", "type": "business", "business_id": "SIC7-xYVXM7-prOGI-DnXQ", "full_address": "100 King Street S\nWaterloo, ON N2J", "latitude": 43.4629209, "state": "ON", "longitude": -80.5215929, "stars": 4.0, "schools": ["University of Waterloo"], "open": true, "categories": ["Food", "Bakeries", "Cafes", "Restaurants"], "photo_url": "http://s3-media1.ak.yelpcdn.com/bphoto/aj07zVUOgcWjo0KOT8P_FA/ms.jpg"}, {"city": "Kitchener", "review_count": 3, "name": "Two Goblets Restaurant", "neighborhoods": [], "url": "http://www.yelp.ca/biz/two-goblets-restaurant-kitchener", "type": "business", "business_id": "OrAvxqci9xhMGZy5KbRGNQ", "full_address": "85 Weber Street West\nKitchener, ON N2H 3Z4", "latitude": 43.4540608, "state": "ON", "longitude": -80.492507, "stars": 4.0, "schools": ["University of Waterloo"], "open": true, "categories": ["German", "Restaurants"], "photo_url": "http://s3-media2.ak.yelpcdn.com/bphoto/cYdfEDGmEmG8TVV5-7BGRA/ms.jpg"}, {"city": "Kitchener", "review_count": 2, "name": "Vijay's Restaurant", "neighborhoods": [], "url": "http://www.yelp.ca/biz/vijays-restaurant-kitchener", "type": "business", "business_id": "BqsbH5ANSL_z8h-YAVGXqA", "full_address": "380 Weber Street W\nKitchener, ON N2H 4B3", "latitude": 43.462856, "state": "ON", "longitude": -80.50122, "stars": 3.0, "schools": ["University of Waterloo"], "open": true, "categories": ["Pakistani", "Indian", "Middle Eastern", "Restaurants"], "photo_url": "http://s3-media1.ak.yelpcdn.com/assets/2/www/img/924a6444ca6c/gfx/blank_biz_medium.gif"}, {"city": "Waterloo", "review_count": 14, "name": "Ben Thanh Viet Thai Restaurant", "neighborhoods": [], "url": "http://www.yelp.ca/biz/ben-thanh-viet-thai-restaurant-waterloo", "type": "business", "business_id": "S6IK4KdWCnWeQt-_9CKTIQ", "full_address": "36 Northfield Dr E\nUnit 1\nWaterloo, ON N2L 6A1", "latitude": 43.502488, "state": "ON", "longitude": -80.53118, "stars": 3.0, "schools": ["University of Waterloo"], "open": true, "categories": ["Thai", "Restaurants"], "photo_url": "http://s3-media4.ak.yelpcdn.com/bphoto/EpJ0z58DMdojWLIuhEL2VQ/ms.jpg"}, {"city": "Waterloo", "review_count": 5, "name": "East Side Mario's", "neighborhoods": [], "url": "http://www.yelp.ca/biz/east-side-marios-waterloo", "type": "business", "business_id": "GInchz2mDbv3TUT43rm4zg", "full_address": "450 King St N\nWaterloo, ON N2J 2Z6", "latitude": 43.4874712, "state": "ON", "longitude": -80.5263265, "stars": 2.0, "schools": ["University of Waterloo"], "open": true, "categories": ["Italian", "Canadian (New)", "Restaurants"], "photo_url": "http://s3-media4.ak.yelpcdn.com/bphoto/D9Y7Iuep-K-g2IAMROohkw/ms.jpg"}, {"city": "Waterloo", "review_count": 7, "name": "My Thai", "neighborhoods": [], "url": "http://www.yelp.ca/biz/my-thai-waterloo-2", "type": "business", "business_id": "wE4hgzFkgZHm6hakRNyLjg", "full_address": "51 King St N\nWaterloo, ON N2J 2W9", "latitude": 43.4666083, "state": "ON", "longitude": -80.5229237, "stars": 4.5, "schools": ["University of Waterloo"], "open": true, "categories": ["Thai", "Restaurants"], "photo_url": "http://s3-media2.ak.yelpcdn.com/bphoto/aycg_K_tIr4d0zeYioUROw/ms.jpg"}, {"city": "Waterloo", "review_count": 6, "name": "Mongolian Grill", "neighborhoods": [], "url": "http://www.yelp.ca/biz/mongolian-grill-waterloo", "type": "business", "business_id": "kTBT-UAzRIuwsvJ1OLJgKg", "full_address": "170 University Avenue W\nWaterloo, ON N2L 3E9", "latitude": 43.472294, "state": "ON", "longitude": -80.538572, "stars": 3.0, "schools": ["University of Waterloo"], "open": true, "categories": ["Mongolian", "Restaurants"], "photo_url": "http://s3-media3.ak.yelpcdn.com/bphoto/-vID8kUlv8TfDPnerFg0Ig/ms.jpg"}, {"city": "Kitchener", "review_count": 4, "name": "The Healthy Haven", "neighborhoods": [], "url": "http://www.yelp.ca/biz/the-healthy-haven-kitchener", "type": "business", "business_id": "9xfhNHDEGYyqqPFPfpt71w", "full_address": "25 Bruce St\nKitchener, ON N2B 1Y4", "latitude": 43.4624636, "state": "ON", "longitude": -80.4696401, "stars": 4.0, "schools": ["University of Waterloo"], "open": true, "categories": ["Food", "Specialty Food", "Health Markets"], "photo_url": "http://s3-media3.ak.yelpcdn.com/bphoto/pOLGZSi4BuNIoYHEanQnZw/ms.jpg"}, {"city": "Kitchener", "review_count": 2, "name": "King Street Tailor & Dressmakers", "neighborhoods": [], "url": "http://www.yelp.ca/biz/king-street-tailor-and-dressmakers-kitchener", "type": "business", "business_id": "uFsmwFQI1qnWbGc-GAunRQ", "full_address": "95 King Street W\nKitchener, ON N2G 1A7", "latitude": 43.4504927, "state": "ON", "longitude": -80.4908771, "stars": 3.0, "schools": ["University of Waterloo"], "open": true, "categories": ["Local Services", "Dry Cleaning & Laundry", "Sewing & Alterations"], "photo_url": "http://s3-media1.ak.yelpcdn.com/assets/2/www/img/924a6444ca6c/gfx/blank_biz_medium.gif"}, {"city": "Waterloo", "review_count": 3, "name": "Generation X Video & Media", "neighborhoods": [], "url": "http://www.yelp.ca/biz/generation-x-video-and-media-waterloo", "type": "business", "business_id": "9bcvnWdrR33Ny6QfWqaw0g", "full_address": "10 Regina Street N\nWaterloo, ON N2J 2Z8", "latitude": 43.4660049, "state": "ON", "longitude": -80.5213911, "stars": 4.0, "schools": ["University of Waterloo"], "open": true, "categories": ["Videos and Video Game Rental", "Books, Mags, Music and Video", "Shopping"], "photo_url": "http://s3-media4.ak.yelpcdn.com/bphoto/vkC5jZ304C4C5k3JW9QTjQ/ms.jpg"}, {"city": "Waterloo", "review_count": 2, "name": "Noodle Hut", "neighborhoods": [], "url": "http://www.yelp.ca/biz/noodle-hut-waterloo", "type": "business", "business_id": "knakMloQ9BeV8PiASnIU6g", "full_address": "220 King Street N\nWaterloo, ON N2J 2Y7", "latitude": 43.4747655, "state": "ON", "longitude": -80.5246534, "stars": 3.0, "schools": ["University of Waterloo"], "open": true, "categories": ["Chinese", "Restaurants"], "photo_url": "http://s3-media2.ak.yelpcdn.com/bphoto/Vl42BOOv5WT9-p5oz6QH9w/ms.jpg"}, {"city": "Kitchener", "review_count": 4, "name": "East Side Mario's", "neighborhoods": [], "url": "http://www.yelp.ca/biz/east-side-marios-kitchener-2", "type": "business", "business_id": "HfLRMg0pG5UI7kG0TV1O1A", "full_address": "446 Highland Road W\nKitchener, ON N2M 3C7", "latitude": 43.4364516, "state": "ON", "longitude": -80.5131468, "stars": 2.0, "schools": ["University of Waterloo"], "open": true, "categories": ["Pizza", "Restaurants"], "photo_url": "http://s3-media1.ak.yelpcdn.com/bphoto/En8juB6cr63BJcOda3CNbw/ms.jpg"}, {"city": "Waterloo", "review_count": 11, "name": "Oliver & Bonacini Cafe Grill", "neighborhoods": [], "url": "http://www.yelp.ca/biz/oliver-and-bonacini-cafe-grill-waterloo", "type": "business", "business_id": "gIfMoCGnhuB6WL5o0ddqzw", "full_address": "550 King St N\nWaterloo, ON N2L", "latitude": 43.4980824, "state": "ON", "longitude": -80.5274971, "stars": 3.5, "schools": ["University of Waterloo"], "open": true, "categories": ["Canadian (New)", "Restaurants"], "photo_url": "http://s3-media4.ak.yelpcdn.com/bphoto/Dh5rEqryS8nLwkQh4rhZJQ/ms.jpg"}, {"city": "Waterloo", "review_count": 2, "name": "Dearborn Restaurant", "neighborhoods": [], "url": "http://www.yelp.ca/biz/dearborn-restaurant-waterloo", "type": "business", "business_id": "mEKNao-OQXU2BVzZfV7XUw", "full_address": "105 Lexington Rd\nWaterloo, ON N2J 4R7", "latitude": 43.4872504, "state": "ON", "longitude": -80.518347, "stars": 4.0, "schools": ["University of Waterloo"], "open": true, "categories": ["Breakfast & Brunch", "Restaurants"], "photo_url": "http://s3-media1.ak.yelpcdn.com/assets/2/www/img/924a6444ca6c/gfx/blank_biz_medium.gif"}, {"city": "Waterloo", "review_count": 4, "name": "Frat Burger", "neighborhoods": [], "url": "http://www.yelp.ca/biz/frat-burger-waterloo", "type": "business", "business_id": "RUnGQSQQMUw-COVhNBb7iQ", "full_address": "10 University Ave\nWaterloo, ON N2L 3C2", "latitude": 43.4761584, "state": "ON", "longitude": -80.5250275, "stars": 5.0, "schools": ["University of Waterloo"], "open": true, "categories": ["Burgers", "Restaurants"], "photo_url": "http://s3-media3.ak.yelpcdn.com/bphoto/mMN7Ozes-wnJYrRvrnhhfQ/ms.jpg"}, {"city": "Waterloo", "review_count": 2, "name": "The Princess Cinema", "neighborhoods": [], "url": "http://www.yelp.ca/biz/the-princess-cinema-waterloo", "type": "business", "business_id": "ZSnaWmigKVt_ihqxIWI0cg", "full_address": "6 Princess St W\nWaterloo, ON N2L 2X8", "latitude": 43.466708, "state": "ON", "longitude": -80.5238087, "stars": 5.0, "schools": ["University of Waterloo"], "open": true, "categories": ["Arts & Entertainment", "Cinema"], "photo_url": "http://s3-media3.ak.yelpcdn.com/bphoto/AIE-bhGL7FnXAGcuEuQa7g/ms.jpg"}, {"city": "Kitchener", "review_count": 3, "name": "Leung Yue Hot Pot", "neighborhoods": [], "url": "http://www.yelp.ca/biz/leung-yue-hot-pot-kitchener", "type": "business", "business_id": "U1txYVeZiQpblyNmHhcCLg", "full_address": "1508 King St. E\nKitchener, ON N2G 2P1", "latitude": 43.439147, "state": "ON", "longitude": -80.464575, "stars": 3.5, "schools": ["University of Waterloo"], "open": true, "categories": ["Chinese", "Restaurants"], "photo_url": "http://s3-media1.ak.yelpcdn.com/bphoto/BUqXbArtAeTwg-vR_7SCyQ/ms.jpg"}, {"city": "Waterloo", "review_count": 11, "name": "Masala Bay Fine Indian Dining", "neighborhoods": [], "url": "http://www.yelp.ca/biz/masala-bay-fine-indian-dining-waterloo", "type": "business", "business_id": "qJQM0LCmfF3g_UkeYuLOkg", "full_address": "3 Regina St N\nWaterloo, ON N2J 2Z7", "latitude": 43.4656034, "state": "ON", "longitude": -80.5213672, "stars": 3.5, "schools": ["University of Waterloo"], "open": true, "categories": ["Indian", "Restaurants"], "photo_url": "http://s3-media3.ak.yelpcdn.com/bphoto/9aMnVxGsX-nTufDWCNvnrA/ms.jpg"}, {"city": "Kitchener", "review_count": 2, "name": "Mr Lee's Hair Fashions", "neighborhoods": [], "url": "http://www.yelp.ca/biz/mr-lees-hair-fashions-kitchener", "type": "business", "business_id": "qtwwPuB_no1jJd_VHsRElw", "full_address": "675 Belmont Ave W\nKitchener, ON N2M 1N8", "latitude": 43.4529777, "state": "ON", "longitude": -80.51798, "stars": 5.0, "schools": ["University of Waterloo"], "open": true, "categories": ["Hair Salons", "Beauty and Spas"], "photo_url": "http://s3-media1.ak.yelpcdn.com/assets/2/www/img/924a6444ca6c/gfx/blank_biz_medium.gif"}, {"city": "Waterloo", "review_count": 7, "name": "Sabletine Fine Pastries", "neighborhoods": [], "url": "http://www.yelp.ca/biz/sabletine-fine-pastries-waterloo", "type": "business", "business_id": "fCN0TBUIdv1Y7Zb0oBJq2g", "full_address": "203 King Street S\nWaterloo, ON N2J 1R1", "latitude": 43.4594631, "state": "ON", "longitude": -80.5180074, "stars": 3.5, "schools": ["University of Waterloo"], "open": true, "categories": ["Food", "Desserts", "Bakeries"], "photo_url": "http://s3-media2.ak.yelpcdn.com/bphoto/mKSyAtzAyJuW5VcXErH91g/ms.jpg"}, {"city": "Waterloo", "review_count": 3, "name": "The Flying Dog", "neighborhoods": [], "url": "http://www.yelp.ca/biz/the-flying-dog-waterloo", "type": "business", "business_id": "LsZytOTWT0QksMyK7YH5Jg", "full_address": "341 Marsland Dr\nWaterloo, ON N2J 3Z2", "latitude": 43.483281, "state": "ON", "longitude": -80.5182138, "stars": 4.0, "schools": ["University of Waterloo"], "open": true, "categories": ["Bistros", "Nightlife", "Restaurants"], "photo_url": "http://s3-media1.ak.yelpcdn.com/assets/2/www/img/924a6444ca6c/gfx/blank_biz_medium.gif"}, {"city": "Waterloo", "review_count": 2, "name": "The Crazy Canuck", "neighborhoods": [], "url": "http://www.yelp.ca/biz/the-crazy-canuck-waterloo", "type": "business", "business_id": "geOLR9EJ953SYOYP4zqPIw", "full_address": "845 Weber Street N\nWaterloo, ON N2L 6J2", "latitude": 43.511102, "state": "ON", "longitude": -80.557017, "stars": 5.0, "schools": ["University of Waterloo"], "open": true, "categories": ["Canadian (New)", "Restaurants"], "photo_url": "http://s3-media2.ak.yelpcdn.com/bphoto/YBU7j33ivzdK651J1zulsQ/ms.jpg"}, {"city": "Kitchener", "review_count": 4, "name": "Dake Japanese Fusion Restaurant", "neighborhoods": [], "url": "http://www.yelp.ca/biz/dake-japanese-fusion-restaurant-kitchener", "type": "business", "business_id": "IEgvHUmKVVkjf7oJy6bPwQ", "full_address": "607 King Street W\nKitchener, ON N2G 1C7", "latitude": 43.452872, "state": "ON", "longitude": -80.502512, "stars": 4.5, "schools": ["University of Waterloo"], "open": true, "categories": ["Japanese", "Restaurants"], "photo_url": "http://s3-media3.ak.yelpcdn.com/bphoto/u85j0xHht6cCgFGRvdpQRw/ms.jpg"}, {"city": "Waterloo", "review_count": 7, "name": "Sweet Dreams Teashop", "neighborhoods": [], "url": "http://www.yelp.ca/biz/sweet-dreams-teashop-waterloo", "type": "business", "business_id": "Fy1XzG9pBh3DtB0POjkQsg", "full_address": "170 University Ave W\nWaterloo, ON N2L 3E9", "latitude": 43.472294, "state": "ON", "longitude": -80.538572, "stars": 4.0, "schools": ["University of Waterloo"], "open": true, "categories": ["Food", "Desserts", "Coffee & Tea"], "photo_url": "http://s3-media3.ak.yelpcdn.com/bphoto/Icxd4Ik9KHHB_d24kkJrFg/ms.jpg"}, {"city": "Waterloo", "review_count": 6, "name": "Mel's Diner", "neighborhoods": [], "url": "http://www.yelp.ca/biz/mels-diner-waterloo", "type": "business", "business_id": "yrJGTKY64GlRfOfVcCPXYw", "full_address": "140 University Ave W\nWaterloo, ON N2L 6J3", "latitude": 43.4725306, "state": "ON", "longitude": -80.5349436, "stars": 4.0, "schools": ["University of Waterloo"], "open": false, "categories": ["Diners", "Restaurants"], "photo_url": "http://s3-media1.ak.yelpcdn.com/assets/2/www/img/924a6444ca6c/gfx/blank_biz_medium.gif"}, {"city": "Kitchener", "review_count": 3, "name": "Pupuseria Latinos", "neighborhoods": [], "url": "http://www.yelp.ca/biz/pupuseria-latinos-kitchener", "type": "business", "business_id": "2VpseW_MAPGr1d-0a7yhoA", "full_address": "25 Eby St S\nKitchener, ON N2G 3K6", "latitude": 43.4470715, "state": "ON", "longitude": -80.4852019, "stars": 4.5, "schools": ["University of Waterloo"], "open": true, "categories": ["Latin American", "Restaurants"], "photo_url": "http://s3-media1.ak.yelpcdn.com/assets/2/www/img/924a6444ca6c/gfx/blank_biz_medium.gif"}, {"city": "Kitchener", "review_count": 2, "name": "Whale & Ale", "neighborhoods": [], "url": "http://www.yelp.ca/biz/whale-and-ale-kitchener", "type": "business", "business_id": "c6Bf_Y0xPE_U7rnHGUsrPw", "full_address": "1120 Victoria Street N\nKitchener, ON N2B 3T2", "latitude": 43.4668143, "state": "ON", "longitude": -80.4586875, "stars": 4.0, "schools": ["University of Waterloo"], "open": true, "categories": [], "photo_url": "http://s3-media1.ak.yelpcdn.com/assets/2/www/img/924a6444ca6c/gfx/blank_biz_medium.gif"}, {"city": "Kitchener", "review_count": 3, "name": "Kishki Halal Shawarma", "neighborhoods": [], "url": "http://www.yelp.ca/biz/kishki-halal-shawarma-kitchener", "type": "business", "business_id": "BQz6Kvgt7qgIAOiYfq_pYQ", "full_address": "200 Highland Road W\n# 4A\nKitchener, ON N2M 3C2", "latitude": 43.4405369, "state": "ON", "longitude": -80.5058317, "stars": 4.5, "schools": ["University of Waterloo"], "open": true, "categories": ["Middle Eastern", "Halal", "Restaurants"], "photo_url": "http://s3-media3.ak.yelpcdn.com/bphoto/lpYWV2dPrxCiR1tANdIzNQ/ms.jpg"}, {"city": "Waterloo", "review_count": 10, "name": "King Tin Restaurant", "neighborhoods": [], "url": "http://www.yelp.ca/biz/king-tin-restaurant-waterloo", "type": "business", "business_id": "3grMlZ4eThVAm-chbFr3gg", "full_address": "258 King Street N\nWaterloo, ON N2J 4V2", "latitude": 43.476903, "state": "ON", "longitude": -80.525, "stars": 3.5, "schools": ["University of Waterloo"], "open": true, "categories": ["Chinese", "Restaurants"], "photo_url": "http://s3-media1.ak.yelpcdn.com/bphoto/xWIfSE0yRlRs7WpGvPNxXQ/ms.jpg"}, {"city": "Waterloo", "review_count": 8, "name": "Vegetarian Fastfood Restaurant", "neighborhoods": [], "url": "http://www.yelp.ca/biz/vegetarian-fastfood-restaurant-waterloo", "type": "business", "business_id": "-6N_13KRzKQvHJeaKashcQ", "full_address": "160 University Avenue West\nWaterloo, ON N2L 3E9", "latitude": 43.4718908, "state": "ON", "longitude": -80.53682, "stars": 4.0, "schools": ["University of Waterloo"], "open": true, "categories": ["Vegetarian", "Fast Food", "Restaurants"], "photo_url": "http://s3-media2.ak.yelpcdn.com/bphoto/H7lhWMm6rmfAtEaR5_7vMg/ms.jpg"}, {"city": "Waterloo", "review_count": 2, "name": "Waterloo Hotel", "neighborhoods": [], "url": "http://www.yelp.ca/biz/waterloo-hotel-waterloo", "type": "business", "business_id": "UoAdY_GmQhFbR21gGxRzJg", "full_address": "2 King St N\nWaterloo, ON N2L 1S7", "latitude": 43.4653917, "state": "ON", "longitude": -80.5222881, "stars": 4.0, "schools": ["University of Waterloo"], "open": true, "categories": ["Hotels & Travel", "Event Planning & Services", "Hotels"], "photo_url": "http://s3-media1.ak.yelpcdn.com/assets/2/www/img/924a6444ca6c/gfx/blank_biz_medium.gif"}, {"city": "Waterloo", "review_count": 4, "name": "Mozy's Shawarma", "neighborhoods": [], "url": "http://www.yelp.ca/biz/mozys-shawarma-waterloo", "type": "business", "business_id": "ADYYLqtREtu9WNtOSeTrMw", "full_address": "247 King St N\nSte 2\nWaterloo, ON N2J 2Y8", "latitude": 43.4760346027537, "state": "ON", "longitude": -80.5257028341293, "stars": 4.5, "schools": ["University of Waterloo"], "open": true, "categories": ["Middle Eastern", "Halal", "Restaurants"], "photo_url": "http://s3-media3.ak.yelpcdn.com/bphoto/1prNLjQIBLNPg4nlZBRjSA/ms.jpg"}, {"city": "Waterloo", "review_count": 2, "name": "Classic Indian Restaurant", "neighborhoods": [], "url": "http://www.yelp.ca/biz/classic-indian-restaurant-waterloo", "type": "business", "business_id": "4LMuN6DNU80UbbIZtn9Q6A", "full_address": "150 Wissler Rd\nWaterloo, ON N2K 3C6", "latitude": 43.5048759, "state": "ON", "longitude": -80.5243925, "stars": 2.5, "schools": ["University of Waterloo"], "open": true, "categories": ["Indian", "Restaurants"], "photo_url": "http://s3-media2.ak.yelpcdn.com/bphoto/zfkH-7pVz0sf-spPsupxZw/ms.jpg"}, {"city": "Waterloo", "review_count": 2, "name": "Goodlife Fitness Clubs", "neighborhoods": [], "url": "http://www.yelp.ca/biz/goodlife-fitness-clubs-waterloo", "type": "business", "business_id": "GpzVG2NFdUFHLlZIla5orA", "full_address": "270 Weber St N\nWaterloo, ON N2J 3H6", "latitude": 43.4793615, "state": "ON", "longitude": -80.5211013, "stars": 3.5, "schools": ["University of Waterloo"], "open": true, "categories": ["Active Life", "Beauty and Spas", "Tanning", "Fitness & Instruction"], "photo_url": "http://s3-media1.ak.yelpcdn.com/assets/2/www/img/924a6444ca6c/gfx/blank_biz_medium.gif"}, {"city": "Waterloo", "review_count": 6, "name": "Kickoff", "neighborhoods": [], "url": "http://www.yelp.ca/biz/kickoff-waterloo", "type": "business", "business_id": "PmGIiQ7Rb8jzDLDg417mAw", "full_address": "170 University Ave W\nWaterloo, ON N2L 3E9", "latitude": 43.472294, "state": "ON", "longitude": -80.538572, "stars": 5.0, "schools": ["University of Waterloo"], "open": true, "categories": ["Bars", "Sports Bars", "Nightlife"], "photo_url": "http://s3-media2.ak.yelpcdn.com/bphoto/hPG5rx3l5h7N5GKx8IFx_A/ms.jpg"}, {"city": "Waterloo", "review_count": 3, "name": "Jane Bond Cafe", "neighborhoods": [], "url": "http://www.yelp.ca/biz/jane-bond-cafe-waterloo", "type": "business", "business_id": "mDjdwwI-8zihQ4ZvpKeHcw", "full_address": "5 Princess St W\nWaterloo, ON N2L 2X7", "latitude": 43.4667073, "state": "ON", "longitude": -80.5233564, "stars": 4.5, "schools": ["University of Waterloo"], "open": true, "categories": ["Cafes", "Restaurants"], "photo_url": "http://s3-media4.ak.yelpcdn.com/bphoto/QGweb8d_VTTxd-uf-m6uXw/ms.jpg"}, {"city": "Kitchener", "review_count": 4, "name": "The Cake Box", "neighborhoods": [], "url": "http://www.yelp.ca/biz/the-cake-box-kitchener", "type": "business", "business_id": "6Nbn8ySMSCEknvd02QSB_w", "full_address": "271 King St W\nKitchener, ON N2G 1B1", "latitude": 43.4515809, "state": "ON", "longitude": -80.4941238, "stars": 3.5, "schools": ["University of Waterloo"], "open": true, "categories": ["Food", "Desserts", "Shopping"], "photo_url": "http://s3-media2.ak.yelpcdn.com/bphoto/92ukICfcPyEGGpI5hYIKAQ/ms.jpg"}, {"city": "Waterloo", "review_count": 2, "name": "O'Yummy Sushi", "neighborhoods": [], "url": "http://www.yelp.ca/biz/o-yummy-sushi-waterloo", "type": "business", "business_id": "GyGTEdHA8ajDhU7oyLSCgQ", "full_address": "646 Erb St W\nUnit 101\nWaterloo, ON N2T 0A8", "latitude": 43.4461333, "state": "ON", "longitude": -80.5718574, "stars": 3.5, "schools": ["University of Waterloo"], "open": true, "categories": ["Sushi Bars", "Restaurants"], "photo_url": "http://s3-media3.ak.yelpcdn.com/bphoto/JMR9GEE4p55qrxjLjugVWQ/ms.jpg"}, {"city": "Waterloo", "review_count": 2, "name": "Waterloo Taxi", "neighborhoods": [], "url": "http://www.yelp.ca/biz/waterloo-taxi-waterloo", "type": "business", "business_id": "rzdyjW3utrVeicoP1eSlfg", "full_address": "55 King Street N\nWaterloo, ON N2J 2W9", "latitude": 43.4667083, "state": "ON", "longitude": -80.5229421, "stars": 5.0, "schools": ["University of Waterloo"], "open": true, "categories": ["Hotels & Travel", "Taxis", "Airports", "Transportation", "Airport Shuttles"], "photo_url": "http://s3-media1.ak.yelpcdn.com/assets/2/www/img/924a6444ca6c/gfx/blank_biz_medium.gif"}, {"city": "Waterloo", "review_count": 10, "name": "Thai Sun", "neighborhoods": [], "url": "http://www.yelp.ca/biz/thai-sun-waterloo", "type": "business", "business_id": "4NzcJju3scPqlceyfAqZKw", "full_address": "75 King Street S\nUnit 61-62\nWaterloo, ON N2J 1P2", "latitude": 43.4639601, "state": "ON", "longitude": -80.5223735, "stars": 2.5, "schools": ["University of Waterloo"], "open": true, "categories": ["Thai", "Restaurants", "Event Planning & Services", "Caterers"], "photo_url": "http://s3-media2.ak.yelpcdn.com/bphoto/tMuIwEn3tiUUlqUkJtyDuQ/ms.jpg"}, {"city": "Kitchener", "review_count": 2, "name": "Your Kitchener Market", "neighborhoods": [], "url": "http://www.yelp.ca/biz/your-kitchener-market-kitchener", "type": "business", "business_id": "lm4Wt2iBTnn0iCnC5mjYTQ", "full_address": "300 King Street E\nKitchener, ON N2G 2L3", "latitude": 43.4476773, "state": "ON", "longitude": -80.483839, "stars": 3.5, "schools": ["University of Waterloo"], "open": true, "categories": ["Specialty Food", "Food", "Fruits & Veggies"], "photo_url": "http://s3-media1.ak.yelpcdn.com/assets/2/www/img/924a6444ca6c/gfx/blank_biz_medium.gif"}, {"city": "Waterloo", "review_count": 2, "name": "Waterloo Public Library", "neighborhoods": [], "url": "http://www.yelp.ca/biz/waterloo-public-library-waterloo-2", "type": "business", "business_id": "7YGCCVL2TKL0cY8Z-FLyqA", "full_address": "35 Albert St\nWaterloo, ON N2L 5E2", "latitude": 43.4660982, "state": "ON", "longitude": -80.5243565, "stars": 5.0, "schools": ["University of Waterloo"], "open": true, "categories": ["Libraries", "Public Services & Government"], "photo_url": "http://s3-media1.ak.yelpcdn.com/assets/2/www/img/924a6444ca6c/gfx/blank_biz_medium.gif"}, {"city": "Kitchener", "review_count": 2, "name": "Kitchener Massage Therapy", "neighborhoods": [], "url": "http://www.yelp.ca/biz/kitchener-massage-therapy-kitchener", "type": "business", "business_id": "ZkFIN-nHdiICGqg-sy8aKA", "full_address": "7 Clarence Place\nKitchener, ON N2H 2L1", "latitude": 43.45466, "state": "ON", "longitude": -80.4815683, "stars": 5.0, "schools": ["University of Waterloo"], "open": true, "categories": ["Health and Medical", "Physical Therapy", "Massage", "Beauty and Spas"], "photo_url": "http://s3-media2.ak.yelpcdn.com/bphoto/SHfRAJ3x0cS-ZI9W01x3MQ/ms.jpg"}, {"city": "Waterloo", "review_count": 2, "name": "Booster Juice", "neighborhoods": [], "url": "http://www.yelp.ca/biz/booster-juice-waterloo", "type": "business", "business_id": "aQxcLxIJuzPsWZs25f6UiQ", "full_address": "247 King St N\nWaterloo, ON N2J 2Y8", "latitude": 43.4763812, "state": "ON", "longitude": -80.5251952, "stars": 4.0, "schools": ["University of Waterloo"], "open": true, "categories": [], "photo_url": "http://s3-media1.ak.yelpcdn.com/assets/2/www/img/924a6444ca6c/gfx/blank_biz_medium.gif"}, {"city": "Waterloo", "review_count": 5, "name": "Curry In A Hurry", "neighborhoods": [], "url": "http://www.yelp.ca/biz/curry-in-a-hurry-waterloo", "type": "business", "business_id": "eHPrtfhvp56CNp2Oc-UsWA", "full_address": "170 University Ave W\nWaterloo, ON N2L 3E9", "latitude": 43.472294, "state": "ON", "longitude": -80.538572, "stars": 3.0, "schools": ["University of Waterloo"], "open": true, "categories": ["Pakistani", "Indian", "Restaurants"], "photo_url": "http://s3-media4.ak.yelpcdn.com/bphoto/om9LQkFcpDoD5koEzPBHyA/ms.jpg"}, {"city": "Waterloo", "review_count": 3, "name": "Canadian Tire Associate Stores", "neighborhoods": [], "url": "http://www.yelp.ca/biz/canadian-tire-associate-stores-waterloo", "type": "business", "business_id": "QeRzU6Cd7e01b98rVzuPnw", "full_address": "400 Weber Street N\nWaterloo, ON N2J 3J3", "latitude": 43.4845752, "state": "ON", "longitude": -80.5249727, "stars": 2.0, "schools": ["University of Waterloo"], "open": true, "categories": ["Tires", "Automotive"], "photo_url": "http://s3-media4.ak.yelpcdn.com/bphoto/8gRT_XHrkEhsRRXxQd7PAA/ms.jpg"}, {"city": "Waterloo", "review_count": 8, "name": "Mikey's Eatery", "neighborhoods": [], "url": "http://www.yelp.ca/biz/mikeys-eatery-waterloo", "type": "business", "business_id": "jtLJ0lfEA_GzieDh129tkA", "full_address": "160 University Avenue W\nWaterloo, ON N2L 3E9", "latitude": 43.4718821, "state": "ON", "longitude": -80.5367967, "stars": 3.5, "schools": ["University of Waterloo"], "open": true, "categories": ["Canadian (New)", "Restaurants"], "photo_url": "http://s3-media3.ak.yelpcdn.com/bphoto/y7C_US9jrxCWj8gpfhNQtw/ms.jpg"}, {"city": "Waterloo", "review_count": 2, "name": "Harmony Lunch", "neighborhoods": [], "url": "http://www.yelp.ca/biz/harmony-lunch-waterloo", "type": "business", "business_id": "bpTcfHpiR3gH9mXZPsfv1g", "full_address": "90 King St N\nWaterloo, ON N2J 2X2", "latitude": 43.4682324, "state": "ON", "longitude": -80.5230564, "stars": 4.0, "schools": ["University of Waterloo"], "open": true, "categories": ["Burgers", "American (Traditional)", "Diners", "Restaurants"], "photo_url": "http://s3-media3.ak.yelpcdn.com/bphoto/te5BTKzHvLOZMx6it4NZQQ/ms.jpg"}, {"city": "Waterloo", "review_count": 7, "name": "Hog Tails Barbeque", "neighborhoods": [], "url": "http://www.yelp.ca/biz/hog-tails-barbeque-waterloo", "type": "business", "business_id": "yHlE0qQIc6pVdto-nMhupw", "full_address": "645 Laurelwood Dr\nWaterloo, ON N2V 2W9", "latitude": 43.470497, "state": "ON", "longitude": -80.5941347, "stars": 4.5, "schools": ["University of Waterloo"], "open": true, "categories": ["Food"], "photo_url": "http://s3-media4.ak.yelpcdn.com/bphoto/ipI-nhDFZ5FkvGrrB9DJiA/ms.jpg"}, {"city": "Waterloo", "review_count": 2, "name": "Starbucks Coffee Company", "neighborhoods": [], "url": "http://www.yelp.ca/biz/starbucks-coffee-company-waterloo", "type": "business", "business_id": "_FyFa245YqvWrmCn5zqtlQ", "full_address": "95 King Street S\nWaterloo, ON N2J 5A2", "latitude": 43.463643, "state": "ON", "longitude": -80.5219883, "stars": 2.5, "schools": ["University of Waterloo"], "open": true, "categories": ["Cafes", "Restaurants"], "photo_url": "http://s3-media1.ak.yelpcdn.com/bphoto/ovV7TxE5kIcdEFenofHJGA/ms.jpg"}, {"city": "Kitchener", "review_count": 2, "name": "Pepi's Pizza", "neighborhoods": [], "url": "http://www.yelp.ca/biz/pepis-pizza-kitchener-3", "type": "business", "business_id": "tZqkwGkiStWmKEDgk_LDTA", "full_address": "87 Water Street N\nKitchener, ON N2H 5A6", "latitude": 43.4539954, "state": "ON", "longitude": -80.4928065, "stars": 3.0, "schools": ["University of Waterloo"], "open": true, "categories": ["Sandwiches", "Restaurants"], "photo_url": "http://s3-media4.ak.yelpcdn.com/bphoto/gJkZpRpX_gt0ELhWqbI7MA/ms.jpg"}, {"city": "Kitchener", "review_count": 2, "name": "Deli Banh Mi Givral", "neighborhoods": [], "url": "http://www.yelp.ca/biz/deli-banh-mi-givral-kitchener", "type": "business", "business_id": "sbJEAUxtSjGxXUFHK7SZYg", "full_address": "301 King St E\nKitchener, ON N2G 2L2", "latitude": 43.4475054, "state": "ON", "longitude": -80.4840324, "stars": 5.0, "schools": ["University of Waterloo"], "open": true, "categories": ["Delis", "Sandwiches", "Restaurants"], "photo_url": "http://s3-media4.ak.yelpcdn.com/bphoto/EjX3TRN7ptJtGUBl8-kh-Q/ms.jpg"}, {"city": "Waterloo", "review_count": 9, "name": "Angie's Kitchen", "neighborhoods": [], "url": "http://www.yelp.ca/biz/angies-kitchen-waterloo", "type": "business", "business_id": "KBSD-XNDRjWi7JCDK9IpMg", "full_address": "47 Erb St W\nWaterloo, ON N2L 1S8", "latitude": 43.4647157, "state": "ON", "longitude": -80.5242586, "stars": 4.0, "schools": ["University of Waterloo"], "open": true, "categories": ["Seafood", "Breakfast & Brunch", "Restaurants"], "photo_url": "http://s3-media2.ak.yelpcdn.com/bphoto/WFkflbC9CkgjMja7RQXfeQ/ms.jpg"}, {"city": "Kitchener", "review_count": 4, "name": "Williamsburg Arms", "neighborhoods": [], "url": "http://www.yelp.ca/biz/williamsburg-arms-kitchener", "type": "business", "business_id": "78PHG2xHOrvYRiZYirEjnQ", "full_address": "1187 Fischer Hallman Rd\nKitchener, ON N2E 4H9", "latitude": 43.4068876, "state": "ON", "longitude": -80.5008087, "stars": 4.0, "schools": ["University of Waterloo"], "open": true, "categories": ["Pubs", "Bars", "Nightlife", "British", "Restaurants"], "photo_url": "http://s3-media1.ak.yelpcdn.com/bphoto/Vy10w3UZlv51TKBaEsTo5Q/ms.jpg"}, {"city": "Kitchener", "review_count": 3, "name": "Mel's Diner", "neighborhoods": [], "url": "http://www.yelp.ca/biz/mels-diner-kitchener", "type": "business", "business_id": "QkFMzggZpfflcieMFWXdeg", "full_address": "645 Westmount Road East\nKitchener, ON N2E 2K1", "latitude": 43.4205811, "state": "ON", "longitude": -80.5020414, "stars": 3.5, "schools": ["University of Waterloo"], "open": true, "categories": ["Burgers", "Breakfast & Brunch", "Diners", "Restaurants"], "photo_url": "http://s3-media3.ak.yelpcdn.com/bphoto/48oiHXeZRkepxdXjj0-zQQ/ms.jpg"}, {"city": "Kitchener", "review_count": 3, "name": "Lai Lai Restaurant", "neighborhoods": [], "url": "http://www.yelp.ca/biz/lai-lai-restaurant-kitchener", "type": "business", "business_id": "qYkx8daPhY336rXQPsSd7A", "full_address": "175 W Avenue\nKitchener, ON N2G 1R9", "latitude": 43.4448923233874, "state": "ON", "longitude": -80.5059134960175, "stars": 4.0, "schools": ["University of Waterloo"], "open": true, "categories": ["Chinese", "Restaurants"], "photo_url": "http://s3-media1.ak.yelpcdn.com/assets/2/www/img/924a6444ca6c/gfx/blank_biz_medium.gif"}, {"city": "Waterloo", "review_count": 4, "name": "Embassy", "neighborhoods": [], "url": "http://www.yelp.ca/biz/embassy-waterloo", "type": "business", "business_id": "2GwaptvRSJePhLgVsutUdw", "full_address": "56 King St N\nWaterloo, ON N2J 2X1", "latitude": 43.4670204, "state": "ON", "longitude": -80.5227058, "stars": 4.0, "schools": ["University of Waterloo"], "open": true, "categories": ["American (New)", "Restaurants"], "photo_url": "http://s3-media2.ak.yelpcdn.com/bphoto/Wv_FUHVaqy4hjwJmP64ygw/ms.jpg"}, {"city": "Waterloo", "review_count": 3, "name": "Lion Brewery Restaurant", "neighborhoods": [], "url": "http://www.yelp.ca/biz/lion-brewery-restaurant-waterloo", "type": "business", "business_id": "El5jyQjxTl1IYiyiQJYoEQ", "full_address": "59 King Street N\nWaterloo, ON N2J 2X2", "latitude": 43.4669488, "state": "ON", "longitude": -80.5228464, "stars": 3.0, "schools": ["University of Waterloo"], "open": true, "categories": ["Pubs", "Breakfast & Brunch", "Bars", "Nightlife", "Restaurants"], "photo_url": "http://s3-media2.ak.yelpcdn.com/bphoto/-T_qElyCXZZIxtbLINeyFA/ms.jpg"}, {"city": "Waterloo", "review_count": 2, "name": "Sonny's Drive-In Limited", "neighborhoods": [], "url": "http://www.yelp.ca/biz/sonnys-drive-in-limited-waterloo", "type": "business", "business_id": "QsTrnjZO0DEApcd3-8FeBA", "full_address": "256 Weber St N\nWaterloo, ON N2J 3H6", "latitude": 43.4787316, "state": "ON", "longitude": -80.5203846, "stars": 4.0, "schools": ["University of Waterloo"], "open": true, "categories": ["Burgers", "Fish & Chips", "Hot Dogs", "Restaurants"], "photo_url": "http://s3-media4.ak.yelpcdn.com/bphoto/aWf47tG_5Zxwy-nA08oXww/ms.jpg"}, {"city": "Kitchener", "review_count": 3, "name": "Ellison's Bistro", "neighborhoods": [], "url": "http://www.yelp.ca/biz/ellisons-bistro-kitchener", "type": "business", "business_id": "FnYYtdBsmLk8rQls_y11Iw", "full_address": "14 Charles Street W\nKitchener, ON N2G 1H2", "latitude": 43.4497297, "state": "ON", "longitude": -80.4916611, "stars": 3.0, "schools": ["University of Waterloo"], "open": true, "categories": ["Caribbean", "Restaurants"], "photo_url": "http://s3-media1.ak.yelpcdn.com/assets/2/www/img/924a6444ca6c/gfx/blank_biz_medium.gif"}, {"city": "Waterloo", "review_count": 3, "name": "Aunty's Cafe", "neighborhoods": [], "url": "http://www.yelp.ca/biz/auntys-cafe-waterloo", "type": "business", "business_id": "3i2PRc2f3f24zktxnoI49w", "full_address": "160 University Avenue W\nUnit 16\nWaterloo, ON N2L 3E9", "latitude": 43.4718821, "state": "ON", "longitude": -80.5367967, "stars": 3.5, "schools": ["University of Waterloo"], "open": true, "categories": ["Indian", "Pakistani", "Restaurants"], "photo_url": "http://s3-media3.ak.yelpcdn.com/bphoto/AHExOoybhlc_TQxQCcwNUw/ms.jpg"}, {"city": "Waterloo", "review_count": 4, "name": "Matter of Taste", "neighborhoods": [], "url": "http://www.yelp.ca/biz/matter-of-taste-waterloo", "type": "business", "business_id": "wDvMXRAMELn6tb-s6aA_DA", "full_address": "75 King St S\nWaterloo, ON N2J 1P2", "latitude": 43.4636356, "state": "ON", "longitude": -80.5219323, "stars": 5.0, "schools": ["University of Waterloo"], "open": true, "categories": ["Food", "Coffee & Tea"], "photo_url": "http://s3-media2.ak.yelpcdn.com/bphoto/x8unyVv7ijaFVCB9bnMtbA/ms.jpg"}, {"city": "Waterloo", "review_count": 4, "name": "Golden Mango Restaurant", "neighborhoods": [], "url": "http://www.yelp.ca/biz/golden-mango-restaurant-waterloo", "type": "business", "business_id": "MMCL6Ys4mBWW0ZYQ4FApKA", "full_address": "150 University Avenue W\nWaterloo, ON N2L 3E4", "latitude": 43.4722819, "state": "ON", "longitude": -80.5361722, "stars": 1.0, "schools": ["University of Waterloo"], "open": true, "categories": ["Thai", "Restaurants"], "photo_url": "http://s3-media1.ak.yelpcdn.com/assets/2/www/img/924a6444ca6c/gfx/blank_biz_medium.gif"}, {"city": "Waterloo", "review_count": 2, "name": "Paul Puncher Men's Clothier", "neighborhoods": [], "url": "http://www.yelp.ca/biz/paul-puncher-mens-clothier-waterloo", "type": "business", "business_id": "HfnOZXUgQskbTNutJdRgEQ", "full_address": "20 Regina Street S\nWaterloo, ON N2J 4W9", "latitude": 43.4644883, "state": "ON", "longitude": -80.5209644, "stars": 3.5, "schools": ["University of Waterloo"], "open": true, "categories": ["Local Services", "Shopping", "Fashion", "Sewing & Alterations", "Shoe Stores"], "photo_url": "http://s3-media1.ak.yelpcdn.com/assets/2/www/img/924a6444ca6c/gfx/blank_biz_medium.gif"}, {"city": "Kitchener", "review_count": 3, "name": "Wild Wing", "neighborhoods": [], "url": "http://www.yelp.ca/biz/wild-wing-kitchener", "type": "business", "business_id": "SVAdEqsvzw0IRwPvJIi_Bw", "full_address": "715 Fischer Hallman Rd\nKitchener, ON N2E", "latitude": 43.415803, "state": "ON", "longitude": -80.510377, "stars": 2.5, "schools": ["University of Waterloo"], "open": true, "categories": ["Chicken Wings", "Restaurants"], "photo_url": "http://s3-media4.ak.yelpcdn.com/bphoto/T2fI761HZ1E9R4MoOPXNoA/ms.jpg"}, {"city": "Kitchener", "review_count": 2, "name": "Three Kretans", "neighborhoods": [], "url": "http://www.yelp.ca/biz/three-kretans-kitchener", "type": "business", "business_id": "OJKJFaLl54tY00HR3hpMSw", "full_address": "151 Frederick St\nKitchener, ON N2H 2M2", "latitude": 43.4524408, "state": "ON", "longitude": -80.4841041, "stars": 3.5, "schools": ["University of Waterloo"], "open": true, "categories": ["Greek", "Mediterranean", "Restaurants"], "photo_url": "http://s3-media3.ak.yelpcdn.com/bphoto/t-YTNP9au75Nwu9z_Rg-Zw/ms.jpg"}, {"city": "Kitchener", "review_count": 3, "name": "Casa Rugantino", "neighborhoods": [], "url": "http://www.yelp.ca/biz/casa-rugantino-kitchener", "type": "business", "business_id": "fIILFLV1LUIQG69S1wR_oA", "full_address": "709 Belmont Avenue W\nKitchener, ON N2M 1P1", "latitude": 43.4538344, "state": "ON", "longitude": -80.5185475, "stars": 4.5, "schools": ["University of Waterloo"], "open": true, "categories": ["Italian", "Restaurants"], "photo_url": "http://s3-media2.ak.yelpcdn.com/bphoto/RHmdloKP0mHnN3y4XxVMMw/ms.jpg"}, {"city": "Waterloo", "review_count": 3, "name": "Boston Pizza", "neighborhoods": [], "url": "http://www.yelp.ca/biz/boston-pizza-waterloo", "type": "business", "business_id": "k7wP-m8GgKC5QiPH-ZD6iw", "full_address": "597 King Street N\nWaterloo, ON N2V 2N3", "latitude": 43.5030738, "state": "ON", "longitude": -80.5351869, "stars": 2.5, "schools": ["University of Waterloo"], "open": true, "categories": ["Pizza", "Restaurants"], "photo_url": "http://s3-media3.ak.yelpcdn.com/bphoto/K5guufKKwN4Gd0FciCrWFA/ms.jpg"}, {"city": "Waterloo", "review_count": 13, "name": "Symposium Cafe", "neighborhoods": [], "url": "http://www.yelp.ca/biz/symposium-cafe-waterloo", "type": "business", "business_id": "X8Jdojm5FTq6qAQfS3pwng", "full_address": "4 King Street N\nWaterloo, ON N2J 2W7", "latitude": 43.465331, "state": "ON", "longitude": -80.5222708, "stars": 3.5, "schools": ["University of Waterloo"], "open": true, "categories": ["Food", "Desserts", "Breakfast & Brunch", "Restaurants"], "photo_url": "http://s3-media4.ak.yelpcdn.com/bphoto/LgPE8JBYg3yTqVxp1CxGRw/ms.jpg"}, {"city": "Waterloo", "review_count": 6, "name": "St Jacob's Farmer's Market", "neighborhoods": [], "url": "http://www.yelp.ca/biz/st-jacobs-farmers-market-waterloo", "type": "business", "business_id": "q_b2Gya0hYhRN_Tx9s_Zlw", "full_address": "878 Weber Street N\nWaterloo, ON N2V 2J9", "latitude": 43.5129087, "state": "ON", "longitude": -80.5572603, "stars": 5.0, "schools": ["University of Waterloo"], "open": true, "categories": ["Food", "Farmers Market"], "photo_url": "http://s3-media3.ak.yelpcdn.com/bphoto/AGGNpXMP8wOfKnxQFWobOA/ms.jpg"}, {"city": "Kitchener", "review_count": 12, "name": "Pho Dau Bo", "neighborhoods": [], "url": "http://www.yelp.ca/biz/pho-dau-bo-kitchener", "type": "business", "business_id": "yoPhGOboGuj9svBwWp3gOA", "full_address": "301 King Street E\nKitchener, ON N2G 2L2", "latitude": 43.4477003, "state": "ON", "longitude": -80.4842087, "stars": 4.0, "schools": ["University of Waterloo"], "open": true, "categories": ["Restaurants", "Vietnamese"], "photo_url": "http://s3-media2.ak.yelpcdn.com/bphoto/K8S0hq-p8Wifl3mUlyiKXA/ms.jpg"}, {"city": "Waterloo", "review_count": 2, "name": "Sugar Mountain", "neighborhoods": [], "url": "http://www.yelp.ca/biz/sugar-mountain-waterloo", "type": "business", "business_id": "I9HkukHxVok66arjAq_qwg", "full_address": "140 University Ave W\nSte 6B\nWaterloo, ON N2L 6J3", "latitude": 43.4725306, "state": "ON", "longitude": -80.5349436, "stars": 3.5, "schools": ["University of Waterloo"], "open": false, "categories": ["Specialty Food", "Food", "Candy Stores"], "photo_url": "http://s3-media1.ak.yelpcdn.com/assets/2/www/img/924a6444ca6c/gfx/blank_biz_medium.gif"}, {"city": "Waterloo", "review_count": 2, "name": "Cafe Aroma", "neighborhoods": [], "url": "http://www.yelp.ca/biz/cafe-aroma-waterloo", "type": "business", "business_id": "FMxFxoLwHIYahrW9OPniIw", "full_address": "33 Erb Street W\nWaterloo, ON N2L 1S8", "latitude": 43.4648096, "state": "ON", "longitude": -80.5238819, "stars": 4.5, "schools": ["University of Waterloo"], "open": true, "categories": ["Food"], "photo_url": "http://s3-media1.ak.yelpcdn.com/assets/2/www/img/924a6444ca6c/gfx/blank_biz_medium.gif"}, {"city": "Kitchener", "review_count": 3, "name": "Encore Records", "neighborhoods": [], "url": "http://www.yelp.ca/biz/encore-records-kitchener", "type": "business", "business_id": "XiNnnnoOT8bMxRyHN3nj6w", "full_address": "54 Queen St S\nKitchener, ON N2G 1V6", "latitude": 43.4491195, "state": "ON", "longitude": -80.4896664, "stars": 4.5, "schools": ["University of Waterloo"], "open": true, "categories": ["Music & DVDs", "Books, Mags, Music and Video", "Shopping"], "photo_url": "http://s3-media1.ak.yelpcdn.com/bphoto/qs_UGFZaMxSnXVxZLkuHGw/ms.jpg"}, {"city": "Kitchener", "review_count": 4, "name": "Village Creperie", "neighborhoods": [], "url": "http://www.yelp.ca/biz/village-creperie-kitchener", "type": "business", "business_id": "zEyV47fOOS_UOG2gCQ5qLQ", "full_address": "703 Belmont Avenue West\nKitchener, ON N2M 1P1", "latitude": 43.4538387, "state": "ON", "longitude": -80.5183119, "stars": 4.5, "schools": ["University of Waterloo"], "open": true, "categories": ["Breakfast & Brunch", "Creperies", "French", "Restaurants"], "photo_url": "http://s3-media1.ak.yelpcdn.com/bphoto/LnWKBMj1esezwuCG5smI8g/ms.jpg"}, {"city": "Kitchener", "review_count": 2, "name": "The Guanaquita Restaurant", "neighborhoods": [], "url": "http://www.yelp.ca/biz/the-guanaquita-restaurant-kitchener", "type": "business", "business_id": "xsmqDjeBD6zTSZB9kXO9nw", "full_address": "273 King Street W Upper\nKitchener, ON N2G 1B1", "latitude": 43.4515083, "state": "ON", "longitude": -80.4942097, "stars": 5.0, "schools": ["University of Waterloo"], "open": true, "categories": ["Latin American", "Mexican", "Salvadoran", "Restaurants"], "photo_url": "http://s3-media1.ak.yelpcdn.com/assets/2/www/img/924a6444ca6c/gfx/blank_biz_medium.gif"}, {"city": "Kitchener", "review_count": 3, "name": "Casey's", "neighborhoods": [], "url": "http://www.yelp.ca/biz/caseys-kitchener", "type": "business", "business_id": "b9O00lp9noIppgWiv_WnpQ", "full_address": "1440 Ottawa St S\nKitchener, ON N2B 3T2", "latitude": 43.4172012, "state": "ON", "longitude": -80.5108491, "stars": 3.5, "schools": ["University of Waterloo"], "open": true, "categories": ["Canadian (New)", "Bars", "Nightlife", "Barbeque", "Restaurants"], "photo_url": "http://s3-media2.ak.yelpcdn.com/bphoto/Oet_mQoPYrZCJm-2jwbDSQ/ms.jpg"}, {"city": "Kitchener", "review_count": 2, "name": "Pho Dau Bo 7 Restaurant", "neighborhoods": [], "url": "http://www.yelp.ca/biz/pho-dau-bo-7-restaurant-kitchener", "type": "business", "business_id": "smPT2UyFLJO9UBHvigKWAg", "full_address": "1051 Victoria St N\nKitchener, ON N2B 3C7", "latitude": 43.4656824, "state": "ON", "longitude": -80.4593761, "stars": 4.5, "schools": ["University of Waterloo"], "open": true, "categories": ["Restaurants", "Vietnamese"], "photo_url": "http://s3-media3.ak.yelpcdn.com/bphoto/Erq8iuo_dV8ma5W2wbHFZg/ms.jpg"}, {"city": "Waterloo", "review_count": 9, "name": "Ye's Sushi", "neighborhoods": [], "url": "http://www.yelp.ca/biz/yes-sushi-waterloo", "type": "business", "business_id": "BWeipXwjf5BIDX_8TjH2JA", "full_address": "583 King St N\nWaterloo, ON N2V 2N3", "latitude": 43.5019762, "state": "ON", "longitude": -80.5338466, "stars": 3.5, "schools": ["University of Waterloo"], "open": true, "categories": ["Japanese", "Restaurants"], "photo_url": "http://s3-media2.ak.yelpcdn.com/bphoto/WbrbFh2VTXVDSXR2xj94AA/ms.jpg"}, {"city": "Kitchener", "review_count": 6, "name": "Delta Kitchener Waterloo", "neighborhoods": [], "url": "http://www.yelp.ca/biz/delta-kitchener-waterloo-kitchener", "type": "business", "business_id": "crJFkHKSCOGXR8Q8CZTsCQ", "full_address": "105 King St E\nKitchener, ON N2G 2K8", "latitude": 43.449028, "state": "ON", "longitude": -80.487707, "stars": 2.5, "schools": ["University of Waterloo"], "open": true, "categories": ["Hotels & Travel", "Event Planning & Services", "Hotels"], "photo_url": "http://s3-media1.ak.yelpcdn.com/assets/2/www/img/924a6444ca6c/gfx/blank_biz_medium.gif"}, {"city": "Waterloo", "review_count": 2, "name": "Sushi 99", "neighborhoods": [], "url": "http://www.yelp.ca/biz/sushi-99-waterloo", "type": "business", "business_id": "Z4zV8THTGY1jUtsC8V213g", "full_address": "36 Northfield Dr E\nWaterloo, ON N2V", "latitude": 43.502488, "state": "ON", "longitude": -80.53118, "stars": 1.5, "schools": ["University of Waterloo"], "open": true, "categories": ["Japanese", "Restaurants"], "photo_url": "http://s3-media4.ak.yelpcdn.com/bphoto/hrEg0UD3BCLjSFdXGD55Ug/ms.jpg"}, {"city": "Waterloo", "review_count": 2, "name": "Almadina Egyptian Cuisine", "neighborhoods": [], "url": "http://www.yelp.ca/biz/almadina-egyptian-cuisine-waterloo", "type": "business", "business_id": "QM-b1uGTuRDWD_FuqadWHw", "full_address": "150 Av University O\nWaterloo, ON N2L 3E4", "latitude": 43.4722819, "state": "ON", "longitude": -80.5361722, "stars": 3.0, "schools": ["University of Waterloo"], "open": true, "categories": [], "photo_url": "http://s3-media1.ak.yelpcdn.com/assets/2/www/img/924a6444ca6c/gfx/blank_biz_medium.gif"}, {"city": "Kitchener", "review_count": 2, "name": "Crock & Block Restaurant & Tavern", "neighborhoods": [], "url": "http://www.yelp.ca/biz/crock-and-block-restaurant-and-tavern-kitchener", "type": "business", "business_id": "1olL69fYVkRlz3_tv4VBYA", "full_address": "1211 King Street E\nKitchener, ON N2G 2N5", "latitude": 43.4410814, "state": "ON", "longitude": -80.4696404, "stars": 3.0, "schools": ["University of Waterloo"], "open": true, "categories": ["Steakhouses", "Restaurants"], "photo_url": "http://s3-media2.ak.yelpcdn.com/bphoto/vuepCmu4rwEzd5EBnZSRlw/ms.jpg"}, {"city": "Kitchener", "review_count": 3, "name": "East African Cafe", "neighborhoods": [], "url": "http://www.yelp.ca/biz/east-african-cafe-kitchener", "type": "business", "business_id": "5eVN_Y1-lXa2p0_RCoAMVg", "full_address": "50 Ontario St S\nKitchener, ON N2G", "latitude": 43.4495089, "state": "ON", "longitude": -80.491034, "stars": 3.5, "schools": ["University of Waterloo"], "open": true, "categories": ["Ethiopian", "Restaurants"], "photo_url": "http://s3-media3.ak.yelpcdn.com/bphoto/RnMcjVvBCGqv9EgCCvNelQ/ms.jpg"}, {"city": "St. Jacobs", "review_count": 4, "name": "Stone Crock", "neighborhoods": [], "url": "http://www.yelp.ca/biz/stone-crock-st-jacobs-3", "type": "business", "business_id": "pb27hCAzqAOfw6KSbYj6VQ", "full_address": "1396 King Street N\nSt. Jacobs, ON N0B 2N0", "latitude": 43.5388926, "state": "ON", "longitude": -80.5535375, "stars": 3.5, "schools": ["University of Waterloo"], "open": true, "categories": ["Modern European", "American (Traditional)", "Restaurants"], "photo_url": "http://s3-media3.ak.yelpcdn.com/bphoto/KLkkl0n1IXPQjv2wgUW4uw/ms.jpg"}, {"city": "Waterloo", "review_count": 3, "name": "Caesar Martini's", "neighborhoods": [], "url": "http://www.yelp.ca/biz/caesar-martinis-waterloo", "type": "business", "business_id": "R24pxFs3vQwL8IjqX0-r9Q", "full_address": "140 University Avenue West\nWaterloo, ON N2L 6J3", "latitude": 43.4728811, "state": "ON", "longitude": -80.5340398, "stars": 2.5, "schools": ["University of Waterloo"], "open": true, "categories": ["Nightlife", "Dance Clubs"], "photo_url": "http://s3-media1.ak.yelpcdn.com/bphoto/iS7g9lMVU-tU1-lTogMwdw/ms.jpg"}, {"city": "St Jacobs", "review_count": 4, "name": "Jacob's Grill", "neighborhoods": [], "url": "http://www.yelp.ca/biz/jacobs-grill-st-jacobs", "type": "business", "business_id": "GIPgrn0JygrRTANHMeRtxA", "full_address": "1398 King St N\nSt Jacobs, ON N0B 2N0", "latitude": 43.5390902, "state": "ON", "longitude": -80.5534998, "stars": 3.5, "schools": ["University of Waterloo"], "open": true, "categories": ["Bars", "American (Traditional)", "Nightlife", "Restaurants"], "photo_url": "http://s3-media3.ak.yelpcdn.com/bphoto/ph5xTEtxslfRicD2rtmq0g/ms.jpg"}, {"city": "Kitchener", "review_count": 8, "name": "Cameron Chinese Seafood Restaurant", "neighborhoods": [], "url": "http://www.yelp.ca/biz/cameron-chinese-seafood-restaurant-kitchener", "type": "business", "business_id": "JJ02voBR45HyTkfpAPDtgA", "full_address": "21-19 Cameron St\nKitchener, ON N2G 3N2", "latitude": 43.4456644, "state": "ON", "longitude": -80.4811601, "stars": 4.0, "schools": ["University of Waterloo"], "open": true, "categories": ["Chinese", "Restaurants"], "photo_url": "http://s3-media3.ak.yelpcdn.com/bphoto/bk105FaWTaSkXWQfLsZW_A/ms.jpg"}, {"city": "Kitchener", "review_count": 2, "name": "Zehrs Markets", "neighborhoods": [], "url": "http://www.yelp.ca/biz/zehrs-markets-kitchener", "type": "business", "business_id": "hRJxpAarZIgQWPI-Mk5WGw", "full_address": "750 Ottawa Street S\nKitchener, ON N2E 1B6", "latitude": 43.4229168, "state": "ON", "longitude": -80.4870324, "stars": 3.5, "schools": ["University of Waterloo"], "open": true, "categories": [], "photo_url": "http://s3-media4.ak.yelpcdn.com/bphoto/Y_xtiikot1aSYuK2sV10Rw/ms.jpg"}, {"city": "Waterloo", "review_count": 7, "name": "Watami Sushi & Sake Bar", "neighborhoods": [], "url": "http://www.yelp.ca/biz/watami-sushi-and-sake-bar-waterloo", "type": "business", "business_id": "9a6LTbduER2sGBUi9MOMQg", "full_address": "15 King Street N\nWaterloo, ON N2J 2W6", "latitude": 43.4655826, "state": "ON", "longitude": -80.5224981, "stars": 4.0, "schools": ["University of Waterloo"], "open": true, "categories": ["Sushi Bars", "Japanese", "Restaurants"], "photo_url": "http://s3-media1.ak.yelpcdn.com/bphoto/3YmunytoPOuboZm51BHBiQ/ms.jpg"}, {"city": "Waterloo", "review_count": 10, "name": "Spring Rolls", "neighborhoods": [], "url": "http://www.yelp.ca/biz/spring-rolls-waterloo", "type": "business", "business_id": "lffKaTyWZJh0yOAxt50QZw", "full_address": "550 King St N\nWaterloo, ON N2L 5W6", "latitude": 43.4978677, "state": "ON", "longitude": -80.5295746, "stars": 3.5, "schools": ["University of Waterloo"], "open": true, "categories": ["Thai", "Asian Fusion", "Chinese", "Restaurants"], "photo_url": "http://s3-media4.ak.yelpcdn.com/bphoto/d2kT1YvKAiQMPwUfiST3aA/ms.jpg"}, {"city": "Waterloo", "review_count": 4, "name": "Zoup! Fresh Soup", "neighborhoods": [], "url": "http://www.yelp.ca/biz/zoup-fresh-soup-waterloo", "type": "business", "business_id": "Q1M9enyFKH_heblaJCO9gA", "full_address": "75 King St S\nWaterloo, ON N2J 1N9", "latitude": 43.462942, "state": "ON", "longitude": -80.523638, "stars": 4.0, "schools": ["University of Waterloo"], "open": true, "categories": ["Soup", "Sandwiches", "Restaurants"], "photo_url": "http://s3-media2.ak.yelpcdn.com/bphoto/WZwcODsg11o48P7V5a5rQA/ms.jpg"}, {"city": "Waterloo", "review_count": 2, "name": "The Works", "neighborhoods": [], "url": "http://www.yelp.ca/biz/the-works-waterloo-2", "type": "business", "business_id": "c0M5iXGASyLB8or2Zw1DEA", "full_address": "92 King Street S\nWaterloo, ON N2J 4V1", "latitude": 43.4631408, "state": "ON", "longitude": -80.5216627, "stars": 4.5, "schools": ["University of Waterloo"], "open": true, "categories": ["Burgers", "Restaurants"], "photo_url": "http://s3-media2.ak.yelpcdn.com/bphoto/juk8fs8u43ynfNaZvw0nLQ/ms.jpg"}, {"city": "Kitchener", "review_count": 3, "name": "Tomoya Japanese Restaurant", "neighborhoods": [], "url": "http://www.yelp.ca/biz/tomoya-japanese-restaurant-kitchener", "type": "business", "business_id": "Xz-dFXlN9ZTioplo8YAbsQ", "full_address": "325 Max Becker Drive\nKitchener, ON N2E 4H5", "latitude": 43.4057334132813, "state": "ON", "longitude": -80.4997336864471, "stars": 4.0, "schools": ["University of Waterloo"], "open": true, "categories": ["Japanese", "Restaurants"], "photo_url": "http://s3-media3.ak.yelpcdn.com/bphoto/v6Vv7nQrJU7BPr6zecFefg/ms.jpg"}, {"city": "Waterloo", "review_count": 3, "name": "Aunty's Kitchen", "neighborhoods": [], "url": "http://www.yelp.ca/biz/auntys-kitchen-waterloo", "type": "business", "business_id": "jHinWr16SfD72bBmHr6V8w", "full_address": "160 University Avenue W\nWaterloo, ON N2L 3E9", "latitude": 43.4718821, "state": "ON", "longitude": -80.5367967, "stars": 4.5, "schools": ["University of Waterloo"], "open": true, "categories": ["Pakistani", "Indian", "Restaurants"], "photo_url": "http://s3-media3.ak.yelpcdn.com/bphoto/Ane5KXAyyPSDQFvfpc1A_A/ms.jpg"}, {"city": "Kitchener", "review_count": 4, "name": "Cafe Pyrus", "neighborhoods": [], "url": "http://www.yelp.ca/biz/cafe-pyrus-kitchener", "type": "business", "business_id": "tOmQeTN7gFOZH1EsRMhnLA", "full_address": "14 Charles St W\nKitchener, ON N2G 1H2", "latitude": 43.4497362, "state": "ON", "longitude": -80.4916856, "stars": 4.0, "schools": ["University of Waterloo"], "open": true, "categories": ["Cafes", "Restaurants"], "photo_url": "http://s3-media1.ak.yelpcdn.com/bphoto/AP9o5lxMpjQkKClaUXMgtg/ms.jpg"}, {"city": "Kitchener", "review_count": 3, "name": "Red Lobster Restaurants", "neighborhoods": [], "url": "http://www.yelp.ca/biz/red-lobster-restaurants-kitchener", "type": "business", "business_id": "eNIjLjdtLXIV5p08CuvYxQ", "full_address": "1732 King St E\nKitchener, ON N2G 2P1", "latitude": 43.4377392, "state": "ON", "longitude": -80.4606923, "stars": 3.5, "schools": ["University of Waterloo"], "open": true, "categories": ["Seafood", "Restaurants"], "photo_url": "http://s3-media4.ak.yelpcdn.com/bphoto/EvBaWgYVnAmXGtoxtsWPKQ/ms.jpg"}, {"city": "Waterloo", "review_count": 6, "name": "Research In Motion", "neighborhoods": [], "url": "http://www.yelp.ca/biz/research-in-motion-waterloo-2", "type": "business", "business_id": "v5dJjqYH46yhk_I32MeDMQ", "full_address": "176 Columbia St W\nWaterloo, ON N2L 3X2", "latitude": 43.4782729, "state": "ON", "longitude": -80.5429494, "stars": 1.0, "schools": ["University of Waterloo"], "open": true, "categories": ["Professional Services", "Home Services", "Internet Service Providers"], "photo_url": "http://s3-media3.ak.yelpcdn.com/bphoto/a9p6pkNqZL85rt6_VI8Zjg/ms.jpg"}, {"city": "Kitchener", "review_count": 3, "name": "Metro Restaurant", "neighborhoods": [], "url": "http://www.yelp.ca/biz/metro-restaurant-kitchener", "type": "business", "business_id": "bP0Z1ELhen7IK3JahUAG5w", "full_address": "164 Victoria St N\nKitchener, ON N2H 5C6", "latitude": 43.455806, "state": "ON", "longitude": -80.4911259, "stars": 3.5, "schools": ["University of Waterloo"], "open": true, "categories": ["German", "Restaurants"], "photo_url": "http://s3-media1.ak.yelpcdn.com/bphoto/WziZi0EaYcoQNOcyJB7xzg/ms.jpg"}, {"city": "Waterloo", "review_count": 9, "name": "Barley Works Bar & Grill", "neighborhoods": [], "url": "http://www.yelp.ca/biz/barley-works-bar-and-grill-waterloo", "type": "business", "business_id": "4Aqi2sddDr58PZ-DexltmA", "full_address": "59 King St N\nWaterloo, ON N2J 2X2", "latitude": 43.4670908, "state": "ON", "longitude": -80.5230263, "stars": 3.0, "schools": ["University of Waterloo"], "open": true, "categories": ["Bars", "American (Traditional)", "Nightlife", "Restaurants"], "photo_url": "http://s3-media2.ak.yelpcdn.com/bphoto/jTUPr1ExcvafI_5KydFFbg/ms.jpg"}, {"city": "Kitchener", "review_count": 3, "name": "Rainbow Caribbean Cuisine", "neighborhoods": [], "url": "http://www.yelp.ca/biz/rainbow-caribbean-cuisine-kitchener", "type": "business", "business_id": "Hbkqha6KJw3tDQoJkIpwNA", "full_address": "29 King St E\nKitchener, ON N2G 2K4", "latitude": 43.449451, "state": "ON", "longitude": -80.4884997, "stars": 4.5, "schools": ["University of Waterloo"], "open": true, "categories": ["Caribbean", "Restaurants"], "photo_url": "http://s3-media1.ak.yelpcdn.com/assets/2/www/img/924a6444ca6c/gfx/blank_biz_medium.gif"}, {"city": "Waterloo", "review_count": 3, "name": "Jack's Family Restaurant", "neighborhoods": [], "url": "http://www.yelp.ca/biz/jacks-family-restaurant-waterloo", "type": "business", "business_id": "E3mDebSEqO6-pOA2RcS8QQ", "full_address": "20 Benjamin Rd\nWaterloo, ON N2V 2J9", "latitude": 43.5084513, "state": "ON", "longitude": -80.5553665, "stars": 2.0, "schools": ["University of Waterloo"], "open": true, "categories": ["Delis", "Restaurants"], "photo_url": "http://s3-media2.ak.yelpcdn.com/bphoto/kmvzXLTQMa5oKPaD9Rqd_w/ms.jpg"}, {"city": "Waterloo", "review_count": 2, "name": "China Legend", "neighborhoods": [], "url": "http://www.yelp.ca/biz/china-legend-waterloo", "type": "business", "business_id": "_-460MubqIbfKr11xjItvA", "full_address": "160 Avenue University O\nWaterloo, ON N2L 3E9", "latitude": 43.4718821, "state": "ON", "longitude": -80.5367967, "stars": 3.5, "schools": ["University of Waterloo"], "open": true, "categories": ["Chinese", "Restaurants"], "photo_url": "http://s3-media1.ak.yelpcdn.com/assets/2/www/img/924a6444ca6c/gfx/blank_biz_medium.gif"}, {"city": "Waterloo", "review_count": 2, "name": "Starbucks Coffee Company", "neighborhoods": [], "url": "http://www.yelp.ca/biz/starbucks-coffee-company-waterloo-2", "type": "business", "business_id": "0tNiadtO-oLQ1RfHN1vgow", "full_address": "247 King Street N\nWaterloo, ON N2J 2Y8", "latitude": 43.4763761, "state": "ON", "longitude": -80.5253004, "stars": 3.5, "schools": ["University of Waterloo"], "open": true, "categories": ["Cafes", "Restaurants"], "photo_url": "http://s3-media1.ak.yelpcdn.com/bphoto/UdVwwjQZcaGScISwljYcmg/ms.jpg"}, {"city": "Waterloo", "review_count": 7, "name": "Ish and Chips", "neighborhoods": [], "url": "http://www.yelp.ca/biz/ish-and-chips-waterloo", "type": "business", "business_id": "fkUDph_kZNwNN1xKngeZ7w", "full_address": "37 King Street N\nWaterloo, ON N2J 2W9", "latitude": 43.4661505, "state": "ON", "longitude": -80.52267, "stars": 3.5, "schools": ["University of Waterloo"], "open": true, "categories": ["Fish & Chips", "Restaurants"], "photo_url": "http://s3-media3.ak.yelpcdn.com/bphoto/ZeUBHKOL2R47YOhNBtibSA/ms.jpg"}, {"city": "Waterloo", "review_count": 2, "name": "Cafe 1842", "neighborhoods": [], "url": "http://www.yelp.ca/biz/cafe-1842-waterloo", "type": "business", "business_id": "YwAMESyNH-fDOj9mjRd_NA", "full_address": "59 King Street N\nWaterloo, ON N2J 2X2", "latitude": 43.4670262, "state": "ON", "longitude": -80.5230279, "stars": 3.0, "schools": ["University of Waterloo"], "open": true, "categories": ["Sandwiches", "Breakfast & Brunch", "Restaurants", "Event Planning & Services", "Caterers"], "photo_url": "http://s3-media4.ak.yelpcdn.com/bphoto/lOVZUSKIJ4xcKcpYjePjTg/ms.jpg"}, {"city": "Kitchener", "review_count": 3, "name": "Ali's Tandoori Junction", "neighborhoods": [], "url": "http://www.yelp.ca/biz/alis-tandoori-junction-kitchener", "type": "business", "business_id": "j6UyrSE8LlMgCpQ7EdTziA", "full_address": "101 Hazelglen Dr\nKitchener, ON N2M 5A2", "latitude": 43.4401818, "state": "ON", "longitude": -80.5263544, "stars": 4.5, "schools": ["University of Waterloo"], "open": true, "categories": ["Pakistani", "Indian", "Restaurants"], "photo_url": "http://s3-media1.ak.yelpcdn.com/assets/2/www/img/924a6444ca6c/gfx/blank_biz_medium.gif"}, {"city": "Waterloo", "review_count": 2, "name": "Milestones Bar & Grill", "neighborhoods": [], "url": "http://www.yelp.ca/biz/milestones-bar-and-grill-waterloo", "type": "business", "business_id": "APJmApxoF0QmGQfyehwCag", "full_address": "410 The Boardwalk\nWaterloo, ON N2T 0A6", "latitude": 43.4642578, "state": "ON", "longitude": -80.5204096, "stars": 3.5, "schools": ["University of Waterloo"], "open": true, "categories": ["Pubs", "Bars", "Nightlife"], "photo_url": "http://s3-media1.ak.yelpcdn.com/bphoto/d-LEhn840vg0Mbm7_Opd5Q/ms.jpg"}, {"city": "Waterloo", "review_count": 21, "name": "Morty's Pub", "neighborhoods": [], "url": "http://www.yelp.ca/biz/mortys-pub-waterloo", "type": "business", "business_id": "1Mn66SHHNLK4iYJ9_KUdOQ", "full_address": "272 King St N\nWaterloo, ON N2J 2Y9", "latitude": 43.4775874, "state": "ON", "longitude": -80.5252317, "stars": 4.0, "schools": ["University of Waterloo"], "open": true, "categories": ["Pubs", "Bars", "Nightlife", "Canadian (New)", "Restaurants"], "photo_url": "http://s3-media3.ak.yelpcdn.com/bphoto/cRFr2qKix6sVI3Hf0_0Tow/ms.jpg"}, {"city": "Kitchener", "review_count": 2, "name": "Angel's Diner", "neighborhoods": [], "url": "http://www.yelp.ca/biz/angels-diner-kitchener", "type": "business", "business_id": "tyZsAMiHjp_KJia-9c5Jtw", "full_address": "370 Highland Rd\nKitchener, ON N2M 3C6", "latitude": 43.4374885, "state": "ON", "longitude": -80.5114265, "stars": 3.0, "schools": ["University of Waterloo"], "open": true, "categories": ["Diners", "Restaurants"], "photo_url": "http://s3-media1.ak.yelpcdn.com/assets/2/www/img/924a6444ca6c/gfx/blank_biz_medium.gif"}, {"city": "Kitchener", "review_count": 5, "name": "Verses", "neighborhoods": [], "url": "http://www.yelp.ca/biz/verses-kitchener", "type": "business", "business_id": "4HQcPMTeYQXLy8wBUSlsCQ", "full_address": "182 Victoria St N\nKitchener, ON N2H 5C6", "latitude": 43.456182, "state": "ON", "longitude": -80.49027, "stars": 5.0, "schools": ["University of Waterloo"], "open": true, "categories": ["French", "Restaurants"], "photo_url": "http://s3-media2.ak.yelpcdn.com/bphoto/4iVpKdDrSNzI6E0oBU7FVA/ms.jpg"}, {"city": "Kitchener", "review_count": 3, "name": "Cafe O Roaster & Bakery", "neighborhoods": [], "url": "http://www.yelp.ca/biz/cafe-o-roaster-and-bakery-kitchener", "type": "business", "business_id": "wwZDX8upwIFwDDlxhGbqiw", "full_address": "901 Victoria Street N\nKitchener, ON N2B 3C3", "latitude": 43.463926, "state": "ON", "longitude": -80.4653642, "stars": 4.5, "schools": ["University of Waterloo"], "open": true, "categories": ["Cafes", "Sandwiches", "Restaurants"], "photo_url": "http://s3-media1.ak.yelpcdn.com/assets/2/www/img/924a6444ca6c/gfx/blank_biz_medium.gif"}, {"city": "Kitchener", "review_count": 5, "name": "McCabe's Irish Pub & Grill", "neighborhoods": [], "url": "http://www.yelp.ca/biz/mccabes-irish-pub-and-grill-kitchener", "type": "business", "business_id": "BV5juEjxD_KhpGTVua2w2g", "full_address": "352 King St W\nKitchener, ON N2G 1B1", "latitude": 43.4521093, "state": "ON", "longitude": -80.4957185, "stars": 4.0, "schools": ["University of Waterloo"], "open": true, "categories": ["Pubs", "Bars", "Nightlife"], "photo_url": "http://s3-media4.ak.yelpcdn.com/bphoto/UtTdBcyN_i9q9zxt4spzUw/ms.jpg"}, {"city": "Waterloo", "review_count": 4, "name": "Mediterraneo Family Restaurant", "neighborhoods": [], "url": "http://www.yelp.ca/biz/mediterraneo-family-restaurant-waterloo", "type": "business", "business_id": "njm3aBtVvgs-eyv565Y0EA", "full_address": "425 University Avenue E\nWaterloo, ON N2K 4C9", "latitude": 43.4894705, "state": "ON", "longitude": -80.4937878, "stars": 3.5, "schools": ["University of Waterloo"], "open": true, "categories": ["Greek", "Mediterranean", "Restaurants"], "photo_url": "http://s3-media1.ak.yelpcdn.com/assets/2/www/img/924a6444ca6c/gfx/blank_biz_medium.gif"}, {"city": "Waterloo", "review_count": 4, "name": "The Pita Factory", "neighborhoods": [], "url": "http://www.yelp.ca/biz/the-pita-factory-waterloo", "type": "business", "business_id": "E-7prgFltopAhSfn9xaySQ", "full_address": "170 University Ave W\nWaterloo, ON N2L 3E9", "latitude": 43.472294, "state": "ON", "longitude": -80.538572, "stars": 4.0, "schools": ["University of Waterloo"], "open": true, "categories": ["Sandwiches", "Restaurants"], "photo_url": "http://s3-media1.ak.yelpcdn.com/assets/2/www/img/924a6444ca6c/gfx/blank_biz_medium.gif"}, {"city": "Kitchener", "review_count": 5, "name": "Balzac's Coffee", "neighborhoods": [], "url": "http://www.yelp.ca/biz/balzacs-coffee-kitchener", "type": "business", "business_id": "qb-Q3qTXNmWRVGPCDP7I2A", "full_address": "151 Charles St W\nUnit R18\nKitchener, ON N2G 1H6", "latitude": 43.4514435, "state": "ON", "longitude": -80.4988594, "stars": 4.0, "schools": ["University of Waterloo"], "open": true, "categories": ["Food", "Coffee & Tea"], "photo_url": "http://s3-media3.ak.yelpcdn.com/bphoto/H09fNjw3MZJLb3c0DA0KEg/ms.jpg"}, {"city": "Waterloo", "review_count": 6, "name": "Bhima's Warung", "neighborhoods": [], "url": "http://www.yelp.ca/biz/bhimas-warung-waterloo", "type": "business", "business_id": "I3Lp5BoPy-BJ1MYTKoJF1Q", "full_address": "262 King St N\nWaterloo, ON N2J 2Y9", "latitude": 43.4773505, "state": "ON", "longitude": -80.5250144, "stars": 5.0, "schools": ["University of Waterloo"], "open": true, "categories": ["Indonesian", "Restaurants"], "photo_url": "http://s3-media3.ak.yelpcdn.com/bphoto/ZUSCgiqjtKwSSob9XPnGrQ/ms.jpg"}, {"city": "Waterloo", "review_count": 12, "name": "Ennio's Pasta House", "neighborhoods": [], "url": "http://www.yelp.ca/biz/ennios-pasta-house-waterloo", "type": "business", "business_id": "xBceRIaK462N6sUHEHtAbg", "full_address": "384 King St N\nWaterloo, ON N2J 2Z3", "latitude": 43.4832431, "state": "ON", "longitude": -80.5264088, "stars": 3.5, "schools": ["University of Waterloo"], "open": true, "categories": ["Italian", "Restaurants", "Event Planning & Services", "Caterers"], "photo_url": "http://s3-media1.ak.yelpcdn.com/bphoto/JLwitXz4nmztaIdLXDmRaQ/ms.jpg"}, {"city": "Waterloo", "review_count": 3, "name": "Tasty Home Kitchen", "neighborhoods": [], "url": "http://www.yelp.ca/biz/tasty-home-kitchen-waterloo", "type": "business", "business_id": "6hAshUWJolieHNaY8PZkRA", "full_address": "247 King St N\nWaterloo, ON N2J 4V2", "latitude": 43.4780872, "state": "ON", "longitude": -80.5253813, "stars": 4.0, "schools": ["University of Waterloo"], "open": true, "categories": ["Chinese", "Restaurants"], "photo_url": "http://s3-media4.ak.yelpcdn.com/bphoto/ZAtVQPjKkGDpKgxHcjRCEQ/ms.jpg"}, {"city": "Waterloo", "review_count": 6, "name": "The Grill Restaurant", "neighborhoods": [], "url": "http://www.yelp.ca/biz/the-grill-restaurant-waterloo", "type": "business", "business_id": "kvxxUwFJ8hcCdebVdJ8xrQ", "full_address": "160 University Ave W\nWaterloo, ON N2L 3E9", "latitude": 43.4719223, "state": "ON", "longitude": -80.5368282, "stars": 3.5, "schools": ["University of Waterloo"], "open": true, "categories": ["Food", "Burgers", "Desserts", "Restaurants"], "photo_url": "http://s3-media1.ak.yelpcdn.com/assets/2/www/img/924a6444ca6c/gfx/blank_biz_medium.gif"}]