[{"city": "Blacksburg", "review_count": 2, "name": "Hi-D-Ho Dog Training", "neighborhoods": [], "url": "http://www.yelp.com/biz/hi-d-ho-dog-training-blacksburg", "type": "business", "business_id": "MXWSVpWoHq0-29bLt-j9qA", "full_address": "2929 Weatherly Ct\nBlacksburg, VA 24060", "latitude": 37.204465, "state": "VA", "longitude": -80.48587, "stars": 3.0, "schools": ["Virginia Tech"], "open": true, "categories": ["Pet Services", "Pets"], "photo_url": "http://s3-media1.ak.yelpcdn.com/assets/2/www/img/924a6444ca6c/gfx/blank_biz_medium.gif"}, {"city": "Blacksburg", "review_count": 6, "name": "Easy Chair Coffee Shop", "neighborhoods": [], "url": "http://www.yelp.com/biz/easy-chair-coffee-shop-blacksburg", "type": "business", "business_id": "xRrnli_Yg_Dvu2hBHRfPTA", "full_address": "801 University City Blvd\nBlacksburg, VA 24060", "latitude": 37.2337, "state": "VA", "longitude": -80.4342, "stars": 4.0, "schools": ["Virginia Tech"], "open": false, "categories": ["Food", "Coffee & Tea"], "photo_url": "http://s3-media2.ak.yelpcdn.com/bphoto/8gtq9RvEh7gbivd4tQ6sWw/ms.jpg"}, {"city": "Blacksburg", "review_count": 2, "name": "Oge-Chi Restuarant and Lounge", "neighborhoods": [], "url": "http://www.yelp.com/biz/oge-chi-restuarant-and-lounge-blacksburg", "type": "business", "business_id": "WKj7NYkcjY79SvaqIunzVw", "full_address": "204 Draper Road NW\nBlacksburg, VA 24060", "latitude": 37.2297, "state": "VA", "longitude": -80.4154, "stars": 2.5, "schools": ["Virginia Tech"], "open": false, "categories": ["Bars", "Nightlife", "Restaurants"], "photo_url": "http://s3-media1.ak.yelpcdn.com/assets/2/www/img/924a6444ca6c/gfx/blank_biz_medium.gif"}, {"city": "Blacksburg", "review_count": 27, "name": "Pita Vera", "neighborhoods": [], "url": "http://www.yelp.com/biz/pita-vera-blacksburg", "type": "business", "business_id": "vpxUqSMqPJyhTisCDSG1_Q", "full_address": "235 N Main St\nBlacksburg, VA 24060", "latitude": 37.2304222, "state": "VA", "longitude": -80.4151425, "stars": 4.0, "schools": ["Virginia Tech"], "open": true, "categories": ["Mediterranean", "Restaurants"], "photo_url": "http://s3-media3.ak.yelpcdn.com/bphoto/gKvzJaGSgwFZJzNdxcc-WA/ms.jpg"}, {"city": "Blacksburg", "review_count": 13, "name": "The Inn at Virginia Tech and Skelton Conference Center", "neighborhoods": [], "url": "http://www.yelp.com/biz/the-inn-at-virginia-tech-and-skelton-conference-center-blacksburg", "type": "business", "business_id": "HqPPWAttTuBpDoKnAQt4Vw", "full_address": "901 Prices Fork Road\nBlacksburg, VA 24061", "latitude": 37.2316838, "state": "VA", "longitude": -80.4329917, "stars": 3.0, "schools": ["Virginia Tech"], "open": true, "categories": ["Hotels & Travel", "Event Planning & Services", "Venues & Event Spaces", "Hotels"], "photo_url": "http://s3-media1.ak.yelpcdn.com/bphoto/Wq7i921dsiIizPbu8p5uVA/ms.jpg"}, {"city": "Blacksburg", "review_count": 11, "name": "Buffalo Wild Wings Grill & Bar", "neighborhoods": [], "url": "http://www.yelp.com/biz/buffalo-wild-wings-grill-and-bar-blacksburg", "type": "business", "business_id": "X7SaMeMdYa76zmavVc2YUA", "full_address": "211 Prices Fork Rd\nSte 200\nBlacksburg, VA 24060", "latitude": 37.234966, "state": "VA", "longitude": -80.420923, "stars": 3.5, "schools": ["Virginia Tech"], "open": true, "categories": ["Bars", "American (Traditional)", "Nightlife", "Restaurants"], "photo_url": "http://s3-media2.ak.yelpcdn.com/bphoto/co6KVKEEdCFhx7O37sCTkA/ms.jpg"}, {"city": "Blacksburg", "review_count": 16, "name": "Cafe De Bangkok", "neighborhoods": [], "url": "http://www.yelp.com/biz/cafe-de-bangkok-blacksburg", "type": "business", "business_id": "F_ofTZiczPkYZ93JAE3RRQ", "full_address": "104 Jackson St NE\nBlacksburg, VA 24060", "latitude": 37.2303009, "state": "VA", "longitude": -80.4141098, "stars": 2.5, "schools": ["Virginia Tech"], "open": true, "categories": ["Thai", "Restaurants"], "photo_url": "http://s3-media2.ak.yelpcdn.com/bphoto/ZlkSAjmAAcx6sCynQYWPoA/ms.jpg"}, {"city": "Blacksburg", "review_count": 2, "name": "North Main Auto Repair", "neighborhoods": [], "url": "http://www.yelp.com/biz/north-main-auto-repair-blacksburg", "type": "business", "business_id": "myFg2k3ft-iy18EfKs2nmg", "full_address": "1303 N Main St # B\nBlacksburg, VA 24060", "latitude": 37.244, "state": "VA", "longitude": -80.4171, "stars": 4.5, "schools": ["Virginia Tech"], "open": true, "categories": ["Auto Repair", "Automotive"], "photo_url": "http://s3-media2.ak.yelpcdn.com/bphoto/slwGczhiAGAIvfa-0eDxnw/ms.jpg"}, {"city": "Christiansburg", "review_count": 3, "name": "New River Nissan", "neighborhoods": [], "url": "http://www.yelp.com/biz/new-river-nissan-christiansburg", "type": "business", "business_id": "QxiEo0oS1MyBrr0vWlMqyg", "full_address": "2130 N Franklin St\nChristiansburg, VA 24073", "latitude": 37.1581, "state": "VA", "longitude": -80.4203, "stars": 5.0, "schools": ["Virginia Tech"], "open": true, "categories": ["Auto Repair", "Automotive", "Car Dealers"], "photo_url": "http://s3-media4.ak.yelpcdn.com/bphoto/yJqBVFFttahN-6s9Ecxnpg/ms.jpg"}, {"city": "Blacksburg", "review_count": 10, "name": "Sushi Factory", "neighborhoods": [], "url": "http://www.yelp.com/biz/sushi-factory-blacksburg", "type": "business", "business_id": "hSDRGgXGuX2BtgaIi7qm2w", "full_address": "801 University City Blvd Ste 15\nBlacksburg, VA 24060", "latitude": 37.2337, "state": "VA", "longitude": -80.4342, "stars": 3.5, "schools": ["Virginia Tech"], "open": true, "categories": ["Sushi Bars", "Restaurants"], "photo_url": "http://s3-media3.ak.yelpcdn.com/bphoto/VaRSWjIyF0yBcWEw2yauZQ/ms.jpg"}, {"city": "Blacksburg", "review_count": 30, "name": "Macado's", "neighborhoods": [], "url": "http://www.yelp.com/biz/macados-blacksburg", "type": "business", "business_id": "X381_JV6xOq3VSsep13GvA", "full_address": "922 University City Blvd\nBlacksburg, VA 24060", "latitude": 37.2366, "state": "VA", "longitude": -80.434, "stars": 3.0, "schools": ["Virginia Tech"], "open": true, "categories": ["Sandwiches", "Restaurants"], "photo_url": "http://s3-media4.ak.yelpcdn.com/bphoto/cBAcD6C9Ra_Nc1Kcp6XO8Q/ms.jpg"}, {"city": "Blacksburg", "review_count": 33, "name": "The Cellar Restaurant", "neighborhoods": [], "url": "http://www.yelp.com/biz/the-cellar-restaurant-blacksburg", "type": "business", "business_id": "76hIZMzHZ_lFM0p2N7_gRQ", "full_address": "302 N Main St\nBlacksburg, VA 24060", "latitude": 37.231, "state": "VA", "longitude": -80.4148, "stars": 3.5, "schools": ["Virginia Tech"], "open": true, "categories": ["Greek", "Restaurants"], "photo_url": "http://s3-media1.ak.yelpcdn.com/bphoto/-7uQzohmG3ayimeNWaH6jg/ms.jpg"}, {"city": "Blacksburg", "review_count": 24, "name": "Vintage Cellar", "neighborhoods": [], "url": "http://www.yelp.com/biz/vintage-cellar-blacksburg", "type": "business", "business_id": "4kR9-F-iooU_l_n2mgSGDw", "full_address": "1338 S Main St\nBlacksburg, VA 24060", "latitude": 37.2172652, "state": "VA", "longitude": -80.401486, "stars": 4.5, "schools": ["Virginia Tech"], "open": true, "categories": ["Food", "Beer, Wine & Spirits"], "photo_url": "http://s3-media3.ak.yelpcdn.com/bphoto/UU-_VCeruO7kw4Zy24yEqw/ms.jpg"}, {"city": "Blacksburg", "review_count": 3, "name": "Double Dragon", "neighborhoods": [], "url": "http://www.yelp.com/biz/double-dragon-blacksburg", "type": "business", "business_id": "kN6Ai2WOz8dEBC75l77iBg", "full_address": "1305 S Main St\nBlacksburg, VA 24060", "latitude": 37.2175539, "state": "VA", "longitude": -80.4014221, "stars": 2.0, "schools": ["Virginia Tech"], "open": true, "categories": ["Chinese", "Restaurants"], "photo_url": "http://s3-media1.ak.yelpcdn.com/assets/2/www/img/924a6444ca6c/gfx/blank_biz_medium.gif"}, {"city": "Blacksburg", "review_count": 3, "name": "Boston Beanery", "neighborhoods": [], "url": "http://www.yelp.com/biz/boston-beanery-blacksburg", "type": "business", "business_id": "Cmim8IrcxWZdJ6SN6CDSAw", "full_address": "400 Turner St NW\nBlacksburg, VA 24060", "latitude": 37.2329647, "state": "VA", "longitude": -80.4215769, "stars": 3.0, "schools": ["Virginia Tech"], "open": false, "categories": ["Restaurants"], "photo_url": "http://s3-media1.ak.yelpcdn.com/assets/2/www/img/924a6444ca6c/gfx/blank_biz_medium.gif"}, {"city": "Blacksburg", "review_count": 16, "name": "Top of the Stairs", "neighborhoods": [], "url": "http://www.yelp.com/biz/top-of-the-stairs-blacksburg", "type": "business", "business_id": "hWoT61c8id5vIsxlP618nQ", "full_address": "217 College Ave\nBlacksburg, VA 24060", "latitude": 37.2297, "state": "VA", "longitude": -80.4164, "stars": 2.5, "schools": ["Virginia Tech"], "open": true, "categories": ["American (Traditional)", "Restaurants"], "photo_url": "http://s3-media2.ak.yelpcdn.com/bphoto/dGSMHNVekNzAlhDS01mVaQ/ms.jpg"}, {"city": "Blacksburg", "review_count": 5, "name": "Big Al's Grille & Sports Bar", "neighborhoods": [], "url": "http://www.yelp.com/biz/big-als-grille-and-sports-bar-blacksburg", "type": "business", "business_id": "Vjag5dfulq_kasZFuUFevQ", "full_address": "201 N Main St\nBlacksburg, VA 24060", "latitude": 37.2300296, "state": "VA", "longitude": -80.4146925, "stars": 4.0, "schools": ["Virginia Tech"], "open": true, "categories": ["Bars", "Restaurants", "American (Traditional)", "Sports Bars", "Nightlife"], "photo_url": "http://s3-media3.ak.yelpcdn.com/bphoto/bi59Qy2-_6kwX6-MtjP2nw/ms.jpg"}, {"city": "Blacksburg", "review_count": 2, "name": "McDonald's", "neighborhoods": [], "url": "http://www.yelp.com/biz/mcdonalds-blacksburg-2", "type": "business", "business_id": "71py1RG3ev8o6Nk2Dwe1Sg", "full_address": "110 Turner St NW\nBlacksburg, VA 24060", "latitude": 37.2328, "state": "VA", "longitude": -80.4188, "stars": 3.0, "schools": ["Virginia Tech"], "open": true, "categories": ["Fast Food", "Restaurants"], "photo_url": "http://s3-media1.ak.yelpcdn.com/assets/2/www/img/924a6444ca6c/gfx/blank_biz_medium.gif"}, {"city": "Blacksburg", "review_count": 23, "name": "Sycamore Deli", "neighborhoods": [], "url": "http://www.yelp.com/biz/sycamore-deli-blacksburg-2", "type": "business", "business_id": "n24Vn9DpMwDW5e6MPjOnrA", "full_address": "211 B Draper Rd\nBlacksburg, VA 24060", "latitude": 37.22978, "state": "VA", "longitude": -80.416105, "stars": 4.5, "schools": ["Virginia Tech"], "open": true, "categories": ["Delis", "Restaurants"], "photo_url": "http://s3-media1.ak.yelpcdn.com/bphoto/u1o_l9V_BX7PdOSAOUW0Hg/ms.jpg"}, {"city": "Christiansburg", "review_count": 2, "name": "Hampton Inn", "neighborhoods": [], "url": "http://www.yelp.com/biz/hampton-inn-christiansburg-2", "type": "business", "business_id": "QVTphvqSLMla4NQqm4mqFw", "full_address": "380 Arbor Drive\nChristiansburg, VA 24073", "latitude": 37.16566, "state": "VA", "longitude": -80.417626, "stars": 4.0, "schools": ["Virginia Tech"], "open": true, "categories": ["Hotels & Travel", "Event Planning & Services", "Hotels"], "photo_url": "http://s3-media3.ak.yelpcdn.com/bphoto/sVqqnEc2Ng09z9Bt5xqclg/ms.jpg"}, {"city": "Blacksburg", "review_count": 3, "name": "Rita's Water Ice", "neighborhoods": [], "url": "http://www.yelp.com/biz/ritas-water-ice-blacksburg", "type": "business", "business_id": "fm0rDtwGgWf9RjPRzGy1Bg", "full_address": "109 College Ave\nBlacksburg, VA 24060", "latitude": 37.230685, "state": "VA", "longitude": -80.415536, "stars": 5.0, "schools": ["Virginia Tech"], "open": true, "categories": [], "photo_url": "http://s3-media4.ak.yelpcdn.com/bphoto/P4CqPusgtB6r6aGGPd4KmQ/ms.jpg"}, {"city": "Blacksburg", "review_count": 21, "name": "India Garden Restaurant", "neighborhoods": [], "url": "http://www.yelp.com/biz/india-garden-restaurant-blacksburg", "type": "business", "business_id": "7zDbcbUkafhkanpTE5TQRQ", "full_address": "210 Prices Fork Rd\nBlacksburg, VA 24060", "latitude": 37.2348, "state": "VA", "longitude": -80.4217, "stars": 3.5, "schools": ["Virginia Tech"], "open": true, "categories": ["Indian", "Restaurants"], "photo_url": "http://s3-media1.ak.yelpcdn.com/bphoto/2ib60O025kY_YLqab5Vdqg/ms.jpg"}, {"city": "Blacksburg", "review_count": 5, "name": "Abby's Restaurant & Bar", "neighborhoods": [], "url": "http://www.yelp.com/biz/abbys-restaurant-and-bar-blacksburg", "type": "business", "business_id": "g-mJhTtvg_uyv5zRFCIOkQ", "full_address": "1001 N Main St\nBlacksburg, VA 24060", "latitude": 37.2387403, "state": "VA", "longitude": -80.4204283, "stars": 4.0, "schools": ["Virginia Tech"], "open": true, "categories": ["American (Traditional)", "Restaurants"], "photo_url": "http://s3-media1.ak.yelpcdn.com/bphoto/RMqq8jVOFU4mWtI6TPgD2Q/ms.jpg"}, {"city": "Blacksburg", "review_count": 6, "name": "Tivon Salon & Spa", "neighborhoods": [], "url": "http://www.yelp.com/biz/tivon-salon-and-spa-blacksburg", "type": "business", "business_id": "hlIwpc2gvIljc0YaqBJDNg", "full_address": "211 Prices Fork Rd\nSuite 100\nBlacksburg, VA 24060", "latitude": 37.2160627, "state": "VA", "longitude": -80.4608722, "stars": 3.5, "schools": ["Virginia Tech"], "open": true, "categories": ["Hair Salons", "Nail Salons", "Hair Removal", "Beauty and Spas"], "photo_url": "http://s3-media2.ak.yelpcdn.com/bphoto/LrSW6i21viNYJ8SUwouGlA/ms.jpg"}, {"city": "Blacksburg", "review_count": 5, "name": "Main Street Inn Llc", "neighborhoods": [], "url": "http://www.yelp.com/biz/main-street-inn-llc-blacksburg", "type": "business", "business_id": "HaWJ-e4pm1XhF1qJyYOeeQ", "full_address": "205 S Main St\nBlacksburg, VA 24060", "latitude": 37.228701, "state": "VA", "longitude": -80.413042, "stars": 3.5, "schools": ["Virginia Tech"], "open": true, "categories": ["Hotels & Travel", "Event Planning & Services", "Hotels"], "photo_url": "http://s3-media1.ak.yelpcdn.com/bphoto/4n0qR6pWtyPHxTR_Nw2sAA/ms.jpg"}, {"city": "Christiansburg", "review_count": 6, "name": "Texas Roadhouse", "neighborhoods": [], "url": "http://www.yelp.com/biz/texas-roadhouse-christiansburg", "type": "business", "business_id": "nbJSDQDMPopbVf6ASB8a5w", "full_address": "100 Bradley Dr\nChristiansburg, VA 24073", "latitude": 37.1626, "state": "VA", "longitude": -80.4263, "stars": 3.5, "schools": ["Virginia Tech"], "open": true, "categories": ["American (Traditional)", "Steakhouses", "Restaurants"], "photo_url": "http://s3-media1.ak.yelpcdn.com/bphoto/lIQfffTrVUPz26weiRgTtg/ms.jpg"}, {"city": "Blacksburg", "review_count": 2, "name": "Jacobs Steve, OD, MA", "neighborhoods": [], "url": "http://www.yelp.com/biz/jacobs-steve-od-ma-blacksburg", "type": "business", "business_id": "dB-gy8OUvhmg0lZ8gIEcEg", "full_address": "620 N Main St\nSte 101\nBlacksburg, VA 24060", "latitude": 37.2342696, "state": "VA", "longitude": -80.419283, "stars": 5.0, "schools": ["Virginia Tech"], "open": true, "categories": ["Optometrists", "Health and Medical"], "photo_url": "http://s3-media2.ak.yelpcdn.com/bphoto/M3m7L_FAEDEfdPrUu2lAAg/ms.jpg"}, {"city": "Blacksburg", "review_count": 2, "name": "Mish Mish", "neighborhoods": [], "url": "http://www.yelp.com/biz/mish-mish-blacksburg", "type": "business", "business_id": "dXNWdPVaNhVSn633OSSv9Q", "full_address": "125 N Main St Ste 200\nBlacksburg, VA 24060", "latitude": 37.2297, "state": "VA", "longitude": -80.4147, "stars": 5.0, "schools": ["Virginia Tech"], "open": true, "categories": ["Art Supplies", "Shopping", "Arts & Crafts"], "photo_url": "http://s3-media1.ak.yelpcdn.com/assets/2/www/img/924a6444ca6c/gfx/blank_biz_medium.gif"}, {"city": "Christiansburg", "review_count": 2, "name": "Arby's", "neighborhoods": [], "url": "http://www.yelp.com/biz/arbys-christiansburg", "type": "business", "business_id": "Y0WP6ZFx-CSYmsbKogLkhQ", "full_address": "2650 Market St\nChristiansburg, VA 24073", "latitude": 37.1659999, "state": "VA", "longitude": -80.4223, "stars": 3.0, "schools": ["Virginia Tech"], "open": true, "categories": ["American (New)", "Restaurants"], "photo_url": "http://s3-media1.ak.yelpcdn.com/bphoto/cU1SR9s3k2sgwTjNblYYfg/ms.jpg"}, {"city": "Blacksburg", "review_count": 7, "name": "Kroger", "neighborhoods": [], "url": "http://www.yelp.com/biz/kroger-blacksburg", "type": "business", "business_id": "0MlzKv-ExET2wV73hr-fsg", "full_address": "1322 S Main St\nBlacksburg, VA 24060", "latitude": 37.2179141, "state": "VA", "longitude": -80.401737, "stars": 4.5, "schools": ["Virginia Tech"], "open": true, "categories": ["Food", "Grocery", "Shopping", "Drugstores"], "photo_url": "http://s3-media1.ak.yelpcdn.com/bphoto/zvraYMohKtpqnlNBefzMWA/ms.jpg"}, {"city": "Christiansburg", "review_count": 7, "name": "Red Robin Gourmet Burgers", "neighborhoods": [], "url": "http://www.yelp.com/biz/red-robin-gourmet-burgers-christiansburg", "type": "business", "business_id": "kjrq7LOaMawzLTVlLMpApQ", "full_address": "105 Peppers Ferry Rd NW\nChristiansburg, VA 24073", "latitude": 37.163386, "state": "VA", "longitude": -80.425858, "stars": 3.0, "schools": ["Virginia Tech"], "open": true, "categories": ["Burgers", "Restaurants"], "photo_url": "http://s3-media1.ak.yelpcdn.com/assets/2/www/img/924a6444ca6c/gfx/blank_biz_medium.gif"}, {"city": "Blacksburg", "review_count": 3, "name": "Firehouse Subs", "neighborhoods": [], "url": "http://www.yelp.com/biz/firehouse-subs-blacksburg", "type": "business", "business_id": "6CWCx51YbZ7ktkRSzA4ITQ", "full_address": "800 University City Blvd\nBlacksburg, VA 24060", "latitude": 37.2337, "state": "VA", "longitude": -80.4324, "stars": 4.5, "schools": ["Virginia Tech"], "open": true, "categories": ["Sandwiches", "Restaurants"], "photo_url": "http://s3-media2.ak.yelpcdn.com/bphoto/B-bcFJ9pe7vUkNOOCVgnWA/ms.jpg"}, {"city": "Blacksburg", "review_count": 3, "name": "The Gobbler Restaurant & Pub", "neighborhoods": [], "url": "http://www.yelp.com/biz/the-gobbler-restaurant-and-pub-blacksburg", "type": "business", "business_id": "Rhzx-LNOm4EU5Gi2IO0J1g", "full_address": "890 Kabrich St\nBlacksburg, VA 24060", "latitude": 37.2372, "state": "VA", "longitude": -80.422, "stars": 3.5, "schools": ["Virginia Tech"], "open": false, "categories": ["Pizza", "Restaurants"], "photo_url": "http://s3-media2.ak.yelpcdn.com/bphoto/WyGXvP3wJU5RyDGjufJ7Kw/ms.jpg"}, {"city": "Blacksburg", "review_count": 19, "name": "Green's Grill & Sushi Bar", "neighborhoods": [], "url": "http://www.yelp.com/biz/greens-grill-and-sushi-bar-blacksburg", "type": "business", "business_id": "YKWQbP6B13LT60j9tEEtIg", "full_address": "109 College Ave\nBlacksburg, VA 24060", "latitude": 37.2304, "state": "VA", "longitude": -80.4155, "stars": 4.0, "schools": ["Virginia Tech"], "open": true, "categories": ["Sushi Bars", "Restaurants"], "photo_url": "http://s3-media1.ak.yelpcdn.com/bphoto/HP2AxhO6URr6wEbgqY50Rg/ms.jpg"}, {"city": "Christiansburg", "review_count": 4, "name": "Outback Steakhouse", "neighborhoods": [], "url": "http://www.yelp.com/biz/outback-steakhouse-christiansburg", "type": "business", "business_id": "aJMJiCDrj1RsNxWlVTe_fA", "full_address": "295 Pepper's Ferry Rd. NE\nChristiansburg, VA 24073", "latitude": 37.1644269, "state": "VA", "longitude": -80.4181784, "stars": 3.0, "schools": ["Virginia Tech"], "open": true, "categories": ["Steakhouses", "Restaurants"], "photo_url": "http://s3-media4.ak.yelpcdn.com/bphoto/e6otGFpt_0dkuLlFkv1drw/ms.jpg"}, {"city": "Blacksburg", "review_count": 5, "name": "Virginia Polytechnic Institute and State University", "neighborhoods": [], "url": "http://www.yelp.com/biz/virginia-polytechnic-institute-and-state-university-blacksburg", "type": "business", "business_id": "7QNzak_Hn1xqq2fcRFnljg", "full_address": "Blacksburg, VA 24061", "latitude": 37.2261949, "state": "VA", "longitude": -80.4340429, "stars": 4.5, "schools": ["Virginia Tech"], "open": true, "categories": ["Colleges & Universities", "Education"], "photo_url": "http://s3-media3.ak.yelpcdn.com/bphoto/hkDzkCxJZ5arOJDozUjXGg/ms.jpg"}, {"city": "Blacksburg", "review_count": 2, "name": "Classic Body Image Salon and Day Spa", "neighborhoods": [], "url": "http://www.yelp.com/biz/classic-body-image-salon-and-day-spa-blacksburg", "type": "business", "business_id": "l1sY1Bp-ICeb8QduHjIjtA", "full_address": "1711 N Main St\nBlacksburg, VA 24060", "latitude": 37.2533, "state": "VA", "longitude": -80.4114, "stars": 2.5, "schools": ["Virginia Tech"], "open": false, "categories": ["Day Spas", "Massage", "Beauty and Spas"], "photo_url": "http://s3-media1.ak.yelpcdn.com/assets/2/www/img/924a6444ca6c/gfx/blank_biz_medium.gif"}, {"city": "Blacksburg", "review_count": 2, "name": "Subway", "neighborhoods": [], "url": "http://www.yelp.com/biz/subway-blacksburg-3", "type": "business", "business_id": "gCPn8KXfHo5B3uUMQoBtkw", "full_address": "1901 S Main St\nBlacksburg, VA 24060", "latitude": 37.2072, "state": "VA", "longitude": -80.3982, "stars": 4.5, "schools": ["Virginia Tech"], "open": true, "categories": ["Sandwiches", "Restaurants"], "photo_url": "http://s3-media1.ak.yelpcdn.com/assets/2/www/img/924a6444ca6c/gfx/blank_biz_medium.gif"}, {"city": "Blacksburg", "review_count": 3, "name": "Food Lion", "neighborhoods": [], "url": "http://www.yelp.com/biz/food-lion-blacksburg-2", "type": "business", "business_id": "FVATXXTvTht2QsF68jbaVQ", "full_address": "1413 N Main St\nBlacksburg, VA 24060", "latitude": 37.2478, "state": "VA", "longitude": -80.415, "stars": 3.0, "schools": ["Virginia Tech"], "open": true, "categories": ["Food", "Grocery"], "photo_url": "http://s3-media3.ak.yelpcdn.com/bphoto/QNU8dZocZl9UuCjyds9okQ/ms.jpg"}, {"city": "Blacksburg", "review_count": 2, "name": "Attitudes Bar & Cafe", "neighborhoods": [], "url": "http://www.yelp.com/biz/attitudes-bar-and-cafe-blacksburg", "type": "business", "business_id": "7ROpZOsaDK1V7Zl_2RaPTA", "full_address": "900 Prices Fork Rd\nBlacksburg, VA 24060", "latitude": 37.231725, "state": "VA", "longitude": -80.431139, "stars": 3.5, "schools": ["Virginia Tech"], "open": true, "categories": ["Hotels & Travel", "Restaurants", "Event Planning & Services", "Hotels"], "photo_url": "http://s3-media1.ak.yelpcdn.com/assets/2/www/img/924a6444ca6c/gfx/blank_biz_medium.gif"}, {"city": "Blacksburg", "review_count": 3, "name": "A Nails & Spa", "neighborhoods": [], "url": "http://www.yelp.com/biz/a-nails-and-spa-blacksburg", "type": "business", "business_id": "fBM2zr7yuEdGDy3S4rexDA", "full_address": "1325 S Main St\nBlacksburg, VA 24060", "latitude": 37.218436, "state": "VA", "longitude": -80.401818, "stars": 3.0, "schools": ["Virginia Tech"], "open": true, "categories": ["Nail Salons", "Beauty and Spas"], "photo_url": "http://s3-media1.ak.yelpcdn.com/assets/2/www/img/924a6444ca6c/gfx/blank_biz_medium.gif"}, {"city": "Blacksburg", "review_count": 4, "name": "East Coasters Cycling & Fitness", "neighborhoods": [], "url": "http://www.yelp.com/biz/east-coasters-cycling-and-fitness-blacksburg", "type": "business", "business_id": "CfwAg7i_tEVLXwPtEgxung", "full_address": "1301 S Main St\nBlacksburg, VA 24060", "latitude": 37.2179261, "state": "VA", "longitude": -80.4016383, "stars": 4.5, "schools": ["Virginia Tech"], "open": true, "categories": ["Sporting Goods", "Bikes", "Shopping"], "photo_url": "http://s3-media1.ak.yelpcdn.com/assets/2/www/img/924a6444ca6c/gfx/blank_biz_medium.gif"}, {"city": "Christiansburg", "review_count": 2, "name": "Sub Shack", "neighborhoods": [], "url": "http://www.yelp.com/biz/sub-shack-christiansburg", "type": "business", "business_id": "SIJy_CroQ6dmc8wQDqM5hg", "full_address": "2767 Market St\nChristiansburg, VA 24073", "latitude": 37.1672855, "state": "VA", "longitude": -80.4211122, "stars": 3.5, "schools": ["Virginia Tech"], "open": true, "categories": ["Pizza", "Sandwiches", "Restaurants"], "photo_url": "http://s3-media1.ak.yelpcdn.com/assets/2/www/img/924a6444ca6c/gfx/blank_biz_medium.gif"}, {"city": "Blacksburg", "review_count": 4, "name": "Castles Kettle and Pub", "neighborhoods": [], "url": "http://www.yelp.com/biz/castles-kettle-and-pub-blacksburg", "type": "business", "business_id": "s4Sw9YLTbxpjz4L5IFv2Mg", "full_address": "607 N Main St\nBlacksburg, VA 24060", "latitude": 37.2333312, "state": "VA", "longitude": -80.4185075, "stars": 4.0, "schools": ["Virginia Tech"], "open": false, "categories": ["Nightlife", "Pubs", "Irish", "Bars", "Restaurants"], "photo_url": "http://s3-media1.ak.yelpcdn.com/bphoto/sOMz5YB_bPpvsiVUFxELmA/ms.jpg"}, {"city": "Blacksburg", "review_count": 7, "name": "Gobblecakes", "neighborhoods": [], "url": "http://www.yelp.com/biz/gobblecakes-blacksburg", "type": "business", "business_id": "9KdBZUN6je0PkrbqxI4PXg", "full_address": "145 College Ave\nBlacksburg, VA 24060", "latitude": 37.230052947998, "state": "VA", "longitude": -80.4162826538086, "stars": 2.5, "schools": ["Virginia Tech"], "open": true, "categories": ["Food", "Bakeries"], "photo_url": "http://s3-media1.ak.yelpcdn.com/assets/2/www/img/924a6444ca6c/gfx/blank_biz_medium.gif"}, {"city": "Christiansbrg", "review_count": 3, "name": "New River Valley Mall", "neighborhoods": [], "url": "http://www.yelp.com/biz/new-river-valley-mall-christiansbrg", "type": "business", "business_id": "va9eOOxtVmKTb0IQVln1Bg", "full_address": "400 New River Rd\nChristiansbrg, VA 24073", "latitude": 37.1639261, "state": "VA", "longitude": -80.4295162, "stars": 3.0, "schools": ["Virginia Tech"], "open": true, "categories": ["Shopping Centers", "Shopping"], "photo_url": "http://s3-media1.ak.yelpcdn.com/bphoto/cLXd6xlvexYOKRwDa-j3Zw/ms.jpg"}, {"city": "Blacksburg", "review_count": 3, "name": "The Tan Company", "neighborhoods": [], "url": "http://www.yelp.com/biz/the-tan-company-blacksburg", "type": "business", "business_id": "GoKvgKYhTpk91gFTnuhCvw", "full_address": "250 S Main St Ste 212\nBlacksburg, VA 24060", "latitude": 37.228178, "state": "VA", "longitude": -80.412936, "stars": 3.5, "schools": ["Virginia Tech"], "open": true, "categories": ["Tanning", "Beauty and Spas"], "photo_url": "http://s3-media1.ak.yelpcdn.com/assets/2/www/img/924a6444ca6c/gfx/blank_biz_medium.gif"}, {"city": "Blacksburg", "review_count": 2, "name": "National Weather Service Forecast Office", "neighborhoods": [], "url": "http://www.yelp.com/biz/national-weather-service-forecast-office-blacksburg", "type": "business", "business_id": "O8XZZGt7NgDxcEv4bsJdxQ", "full_address": "1750 Forecast Dr\nBlacksburg, VA 24060", "latitude": 37.2038, "state": "VA", "longitude": -80.4144, "stars": 5.0, "schools": ["Virginia Tech"], "open": true, "categories": ["Public Services & Government"], "photo_url": "http://s3-media1.ak.yelpcdn.com/assets/2/www/img/924a6444ca6c/gfx/blank_biz_medium.gif"}, {"city": "Blacksburg", "review_count": 2, "name": "PC Land Inc", "neighborhoods": [], "url": "http://www.yelp.com/biz/pc-land-inc-blacksburg", "type": "business", "business_id": "5gxRkjhVx3w1ofp2N-YkIA", "full_address": "1333 S Main St\nBlacksburg, VA 24060", "latitude": 37.2166285, "state": "VA", "longitude": -80.4009987, "stars": 3.5, "schools": ["Virginia Tech"], "open": true, "categories": ["Local Services", "Computers", "Shopping", "IT Services & Computer Repair"], "photo_url": "http://s3-media1.ak.yelpcdn.com/assets/2/www/img/924a6444ca6c/gfx/blank_biz_medium.gif"}, {"city": "Christiansburg", "review_count": 2, "name": "Barnes & Nobles", "neighborhoods": [], "url": "http://www.yelp.com/biz/barnes-and-nobles-christiansburg", "type": "business", "business_id": "Xz8wGUUjCdlUJ_BSPHRgWA", "full_address": "110 Conston Ave\nChristiansburg, VA 24073", "latitude": 37.158, "state": "VA", "longitude": -80.4237846, "stars": 4.0, "schools": ["Virginia Tech"], "open": true, "categories": ["Newspapers & Magazines", "Books, Mags, Music and Video", "Shopping", "Bookstores"], "photo_url": "http://s3-media3.ak.yelpcdn.com/bphoto/8xTxMw29y1WKHz9HNv7Meg/ms.jpg"}, {"city": "Blacksburg", "review_count": 11, "name": "Hunan King Chinese Restaurant", "neighborhoods": [], "url": "http://www.yelp.com/biz/hunan-king-chinese-restaurant-blacksburg", "type": "business", "business_id": "T0WFU_zBoeHD1-08TX33-g", "full_address": "801 University City Blvd\nBlacksburg, VA 24060", "latitude": 37.2337, "state": "VA", "longitude": -80.4342, "stars": 3.0, "schools": ["Virginia Tech"], "open": true, "categories": ["Chinese", "Restaurants"], "photo_url": "http://s3-media1.ak.yelpcdn.com/assets/2/www/img/924a6444ca6c/gfx/blank_biz_medium.gif"}, {"city": "Blacksburg", "review_count": 2, "name": "The Kroger Company", "neighborhoods": [], "url": "http://www.yelp.com/biz/the-kroger-company-blacksburg", "type": "business", "business_id": "DkrywnO8eqRfMVECYbigUw", "full_address": "903 University City Blvd\nBlacksburg, VA 24060", "latitude": 37.2357031, "state": "VA", "longitude": -80.4351478, "stars": 4.0, "schools": ["Virginia Tech"], "open": true, "categories": ["Food", "Grocery"], "photo_url": "http://s3-media4.ak.yelpcdn.com/bphoto/4ks006Du9tIxw-lAkxB0gg/ms.jpg"}, {"city": "Blacksburg", "review_count": 16, "name": "Poor Billy's Seafood Restaurant", "neighborhoods": [], "url": "http://www.yelp.com/biz/poor-billys-seafood-restaurant-blacksburg", "type": "business", "business_id": "G_GPyXy1k9yA3njUJpW55g", "full_address": "201 N Main St\nBlacksburg, VA 24060", "latitude": 37.2300296, "state": "VA", "longitude": -80.4146925, "stars": 3.0, "schools": ["Virginia Tech"], "open": true, "categories": ["Sushi Bars", "Restaurants"], "photo_url": "http://s3-media2.ak.yelpcdn.com/bphoto/KWwYiObXFTRXSW01r1EIFg/ms.jpg"}, {"city": "Blacksburg", "review_count": 2, "name": "South Main Auto Service", "neighborhoods": [], "url": "http://www.yelp.com/biz/south-main-auto-service-blacksburg", "type": "business", "business_id": "b1tsu3P4yvzMJA10oHJ0Tw", "full_address": "1810 S Main St\nBlacksburg, VA 24060", "latitude": 37.2076, "state": "VA", "longitude": -80.3997, "stars": 3.5, "schools": ["Virginia Tech"], "open": true, "categories": ["Tires", "Automotive", "Auto Repair"], "photo_url": "http://s3-media1.ak.yelpcdn.com/bphoto/M5gXRFAJjsIpYTWdILg3pg/ms.jpg"}, {"city": "Christiansburg", "review_count": 3, "name": "IHOP", "neighborhoods": [], "url": "http://www.yelp.com/biz/ihop-christiansburg", "type": "business", "business_id": "pn96zHTDVP_F68de76Ox5g", "full_address": "65 Peppers Ferry Rd NW\nChristiansburg, VA 24073", "latitude": 37.1646, "state": "VA", "longitude": -80.4246, "stars": 1.5, "schools": ["Virginia Tech"], "open": true, "categories": ["Breakfast & Brunch", "American (Traditional)", "Restaurants"], "photo_url": "http://s3-media3.ak.yelpcdn.com/bphoto/fu6n7fS8jTXoPGV-wH1VyQ/ms.jpg"}, {"city": "Christiansburg", "review_count": 10, "name": "El Gran Rodeo", "neighborhoods": [], "url": "http://www.yelp.com/biz/el-gran-rodeo-christiansburg", "type": "business", "business_id": "mAw6QGWaX2nb50P_M6xZpQ", "full_address": "2575 Market St\nChristiansburg, VA 24073", "latitude": 37.164716, "state": "VA", "longitude": -80.4226739, "stars": 3.5, "schools": ["Virginia Tech"], "open": true, "categories": ["Restaurants"], "photo_url": "http://s3-media1.ak.yelpcdn.com/assets/2/www/img/924a6444ca6c/gfx/blank_biz_medium.gif"}, {"city": "Blacksburg", "review_count": 2, "name": "A A T S Ancient Art Tattoo Studio", "neighborhoods": [], "url": "http://www.yelp.com/biz/a-a-t-s-ancient-art-tattoo-studio-blacksburg", "type": "business", "business_id": "A9gZkyU2Prr7rY4lyyov6w", "full_address": "106 Roanoke St W\nBlacksburg, VA 24060", "latitude": 37.2293108, "state": "VA", "longitude": -80.4140045, "stars": 5.0, "schools": ["Virginia Tech"], "open": true, "categories": ["Tattoo", "Piercing", "Beauty and Spas"], "photo_url": "http://s3-media1.ak.yelpcdn.com/assets/2/www/img/924a6444ca6c/gfx/blank_biz_medium.gif"}, {"city": "Blacksburg", "review_count": 2, "name": "Signspot", "neighborhoods": [], "url": "http://www.yelp.com/biz/signspot-blacksburg", "type": "business", "business_id": "F8lrO3i3rNQs8wS9sCuILg", "full_address": "3956 S Main St\nBlacksburg, VA 24060", "latitude": 37.1783, "state": "VA", "longitude": -80.4167, "stars": 5.0, "schools": ["Virginia Tech"], "open": true, "categories": ["Local Services"], "photo_url": "http://s3-media1.ak.yelpcdn.com/assets/2/www/img/924a6444ca6c/gfx/blank_biz_medium.gif"}, {"city": "Christiansburg", "review_count": 2, "name": "Applebee's Neighborhood Grill & Bar", "neighborhoods": [], "url": "http://www.yelp.com/biz/applebees-neighborhood-grill-and-bar-christiansburg", "type": "business", "business_id": "cE96KgmjaqZaraGOIVaHJw", "full_address": "2790 Market St\nChristiansburg, VA 24073", "latitude": 37.1679, "state": "VA", "longitude": -80.4213, "stars": 1.5, "schools": ["Virginia Tech"], "open": true, "categories": ["Bars", "American (Traditional)", "Nightlife", "Restaurants"], "photo_url": "http://s3-media1.ak.yelpcdn.com/assets/2/www/img/924a6444ca6c/gfx/blank_biz_medium.gif"}, {"city": "Blacksburg", "review_count": 2, "name": "Back Country Ski & Sports", "neighborhoods": [], "url": "http://www.yelp.com/biz/back-country-ski-and-sports-blacksburg", "type": "business", "business_id": "lycHbq5ffGXtmEUE10vYpw", "full_address": "3710 S Main St\nBlacksburg, VA 24060", "latitude": 37.1853309, "state": "VA", "longitude": -80.4089874, "stars": 3.0, "schools": ["Virginia Tech"], "open": true, "categories": ["Sporting Goods", "Shopping", "Outdoor Gear"], "photo_url": "http://s3-media1.ak.yelpcdn.com/assets/2/www/img/924a6444ca6c/gfx/blank_biz_medium.gif"}, {"city": "Blacksburg", "review_count": 22, "name": "El Rodeo", "neighborhoods": [], "url": "http://www.yelp.com/biz/el-rodeo-blacksburg", "type": "business", "business_id": "K4Sq3cz0-73HWS14K6I6Ng", "full_address": "623 N Main St\nBlacksburg, VA 24060", "latitude": 37.2342, "state": "VA", "longitude": -80.4198, "stars": 3.0, "schools": ["Virginia Tech"], "open": true, "categories": ["Mexican", "Restaurants"], "photo_url": "http://s3-media3.ak.yelpcdn.com/bphoto/kylcMs5zEkw0DYoNxpn68g/ms.jpg"}, {"city": "Blacksburg", "review_count": 3, "name": "Bud Foster's Restaurant", "neighborhoods": [], "url": "http://www.yelp.com/biz/bud-fosters-restaurant-blacksburg", "type": "business", "business_id": "rApUugTXL6kg1DIosUhDUQ", "full_address": "400 Turner St NW\nSte 101\nBlacksburg, VA 24060", "latitude": 37.2329215, "state": "VA", "longitude": -80.4215915, "stars": 3.5, "schools": ["Virginia Tech"], "open": false, "categories": ["Restaurants"], "photo_url": "http://s3-media1.ak.yelpcdn.com/assets/2/www/img/924a6444ca6c/gfx/blank_biz_medium.gif"}, {"city": "Blacksburg", "review_count": 3, "name": "Hokie Spokes", "neighborhoods": [], "url": "http://www.yelp.com/biz/hokie-spokes-blacksburg", "type": "business", "business_id": "ZmABtfx5BCtz1BWTGt0sWA", "full_address": "424 N Main St Frnt\nBlacksburg, VA 24060", "latitude": 37.2295733, "state": "VA", "longitude": -80.4139393, "stars": 3.5, "schools": ["Virginia Tech"], "open": true, "categories": ["Active Life", "Sporting Goods", "Bikes", "Shopping", "Bike Rentals"], "photo_url": "http://s3-media3.ak.yelpcdn.com/bphoto/sjIO3J9rbCHtzxjMkNHUxA/ms.jpg"}, {"city": "Blacksburg", "review_count": 7, "name": "Beijing Buffet", "neighborhoods": [], "url": "http://www.yelp.com/biz/beijing-buffet-blacksburg", "type": "business", "business_id": "ncZgdBYg2gzGeSLJb2xM0Q", "full_address": "1200 S Main St\nBlacksburg, VA 24060", "latitude": 37.2194609, "state": "VA", "longitude": -80.4031586, "stars": 3.0, "schools": ["Virginia Tech"], "open": true, "categories": ["Buffets", "Restaurants"], "photo_url": "http://s3-media1.ak.yelpcdn.com/assets/2/www/img/924a6444ca6c/gfx/blank_biz_medium.gif"}, {"city": "Christiansburg", "review_count": 4, "name": "Ryan's Family Steak Houses", "neighborhoods": [], "url": "http://www.yelp.com/biz/ryans-family-steak-houses-christiansburg", "type": "business", "business_id": "326yTsKZp30ncqYQLaq1Cg", "full_address": "2580 N Franklin St\nChristiansburg, VA 24073", "latitude": 37.1652, "state": "VA", "longitude": -80.4241, "stars": 2.0, "schools": ["Virginia Tech"], "open": true, "categories": ["Steakhouses", "Restaurants"], "photo_url": "http://s3-media4.ak.yelpcdn.com/bphoto/leVvwoTlCKVRbJqH2bpP0Q/ms.jpg"}, {"city": "Christiansburg", "review_count": 2, "name": "Bookbinder's Grill", "neighborhoods": [], "url": "http://www.yelp.com/biz/bookbinders-grill-christiansburg", "type": "business", "business_id": "3OmYvTrYQFwITFq4vm6Vsg", "full_address": "420 Peppers Ferry Rd NW\nChristiansburg, VA 24073", "latitude": 37.1618, "state": "VA", "longitude": -80.4327, "stars": 3.5, "schools": ["Virginia Tech"], "open": false, "categories": ["Seafood", "Restaurants"], "photo_url": "http://s3-media1.ak.yelpcdn.com/assets/2/www/img/924a6444ca6c/gfx/blank_biz_medium.gif"}, {"city": "blacksburg", "review_count": 2, "name": "Cinco De Mayo", "neighborhoods": [], "url": "http://www.yelp.com/biz/cinco-de-mayo-blacksburg", "type": "business", "business_id": "jZBRs1UCbylCpcTOQ5Bi3Q", "full_address": "3703 S Main St\nblacksburg, VA 24060", "latitude": 37.185587, "state": "VA", "longitude": -80.40812, "stars": 2.0, "schools": ["Virginia Tech"], "open": false, "categories": ["Mexican", "Restaurants"], "photo_url": "http://s3-media1.ak.yelpcdn.com/assets/2/www/img/924a6444ca6c/gfx/blank_biz_medium.gif"}, {"city": "Blacksburg", "review_count": 14, "name": "Chu-Cho's Mexican", "neighborhoods": [], "url": "http://www.yelp.com/biz/chu-chos-mexican-blacksburg", "type": "business", "business_id": "f2ggWe2Lw3cGeA5T7mk_ZA", "full_address": "400 Turner St\nBlacksburg, VA 24060", "latitude": 37.2331, "state": "VA", "longitude": -80.422, "stars": 2.0, "schools": ["Virginia Tech"], "open": false, "categories": ["Mexican", "Restaurants"], "photo_url": "http://s3-media1.ak.yelpcdn.com/assets/2/www/img/924a6444ca6c/gfx/blank_biz_medium.gif"}, {"city": "Blacksburg", "review_count": 10, "name": "El Mariachi", "neighborhoods": [], "url": "http://www.yelp.com/biz/el-mariachi-blacksburg", "type": "business", "business_id": "r4panjUBSyDOEtDsSWyf9Q", "full_address": "3703 S Main St\nBlacksburg, VA 24060", "latitude": 37.1855868, "state": "VA", "longitude": -80.4081136, "stars": 4.5, "schools": ["Virginia Tech"], "open": true, "categories": ["Mexican", "Restaurants"], "photo_url": "http://s3-media2.ak.yelpcdn.com/bphoto/F5TjzB4oZhabDA1pxtL3ZA/ms.jpg"}, {"city": "Christiansburg", "review_count": 5, "name": "Regal New River Valley Stadium 14", "neighborhoods": [], "url": "http://www.yelp.com/biz/regal-new-river-valley-stadium-14-christiansburg", "type": "business", "business_id": "I_7cQmHxx6LokP9yr7Fx-w", "full_address": "New River Valley Mall\n110 New River Rd\nChristiansburg, VA 24068", "latitude": 37.163741, "state": "VA", "longitude": -80.428698, "stars": 4.0, "schools": ["Virginia Tech"], "open": true, "categories": ["Arts & Entertainment", "Cinema"], "photo_url": "http://s3-media4.ak.yelpcdn.com/bphoto/KDmI59ts17nGBBmRR8iXQA/ms.jpg"}, {"city": "Blacksburg", "review_count": 6, "name": "Firehouse Pizza", "neighborhoods": [], "url": "http://www.yelp.com/biz/firehouse-pizza-blacksburg", "type": "business", "business_id": "RrczVxs8amaeQm-bVx96sA", "full_address": "860 University City Blvd\nBlacksburg, VA 24060", "latitude": 37.2355, "state": "VA", "longitude": -80.4329, "stars": 2.5, "schools": ["Virginia Tech"], "open": true, "categories": ["Pizza", "Restaurants"], "photo_url": "http://s3-media1.ak.yelpcdn.com/assets/2/www/img/924a6444ca6c/gfx/blank_biz_medium.gif"}, {"city": "Blacksburg", "review_count": 3, "name": "Preston's", "neighborhoods": [], "url": "http://www.yelp.com/biz/prestons-blacksburg", "type": "business", "business_id": "u1wF70zlIMVOG9sPvwyojA", "full_address": "901 Prices Fork Road\nBlacksburg, VA 24061", "latitude": 37.229807, "state": "VA", "longitude": -80.429986, "stars": 3.0, "schools": ["Virginia Tech"], "open": true, "categories": ["American (Traditional)", "Restaurants"], "photo_url": "http://s3-media1.ak.yelpcdn.com/assets/2/www/img/924a6444ca6c/gfx/blank_biz_medium.gif"}, {"city": "Blacksburg", "review_count": 2, "name": "Companion Animal Clinic Inc", "neighborhoods": [], "url": "http://www.yelp.com/biz/companion-animal-clinic-inc-blacksburg", "type": "business", "business_id": "uyrIgOpomZhXXbYHPx951w", "full_address": "201 S Hill St\nBlacksburg, VA 24060", "latitude": 37.2072587, "state": "VA", "longitude": -80.4005391, "stars": 1.5, "schools": ["Virginia Tech"], "open": true, "categories": ["Veterinarians", "Pets"], "photo_url": "http://s3-media1.ak.yelpcdn.com/assets/2/www/img/924a6444ca6c/gfx/blank_biz_medium.gif"}, {"city": "Blacksburg", "review_count": 9, "name": "Mill Mountain Coffee & Tea", "neighborhoods": [], "url": "http://www.yelp.com/biz/mill-mountain-coffee-and-tea-blacksburg", "type": "business", "business_id": "4MPACVneQtpnTbzHavn1fQ", "full_address": "700 N Main St\nBlacksburg, VA 24060", "latitude": 37.235, "state": "VA", "longitude": -80.4198, "stars": 3.5, "schools": ["Virginia Tech"], "open": true, "categories": ["Food", "Coffee & Tea", "Restaurants"], "photo_url": "http://s3-media2.ak.yelpcdn.com/bphoto/ievWe9eewqLyr2l8y6lvkA/ms.jpg"}, {"city": "Blacksburg", "review_count": 8, "name": "Roma's Pizza", "neighborhoods": [], "url": "http://www.yelp.com/biz/romas-pizza-blacksburg", "type": "business", "business_id": "ZFdGatpUaeb37NZRGsL_yw", "full_address": "1407 N Main St\nBlacksburg, VA 24060", "latitude": 37.2465718, "state": "VA", "longitude": -80.4146886, "stars": 4.5, "schools": ["Virginia Tech"], "open": true, "categories": ["Pizza", "Restaurants"], "photo_url": "http://s3-media1.ak.yelpcdn.com/assets/2/www/img/924a6444ca6c/gfx/blank_biz_medium.gif"}, {"city": "Blacksburg", "review_count": 8, "name": "Cook-Out Restaurant", "neighborhoods": [], "url": "http://www.yelp.com/biz/cook-out-restaurant-blacksburg", "type": "business", "business_id": "5Ji5L2GF0ppuwVyC_ET6mg", "full_address": "1311 S Main St\nBlacksburg, VA 24060", "latitude": 37.217, "state": "VA", "longitude": -80.4008, "stars": 4.0, "schools": ["Virginia Tech"], "open": true, "categories": ["Burgers", "Fast Food", "Restaurants"], "photo_url": "http://s3-media4.ak.yelpcdn.com/bphoto/aPK1HqrQhvyc-9EjUiYdyw/ms.jpg"}, {"city": "Christiansburg", "review_count": 2, "name": "Mamma Concetta", "neighborhoods": [], "url": "http://www.yelp.com/biz/mamma-concetta-christiansburg", "type": "business", "business_id": "5D2grc_hZGoCt4UNncJzVQ", "full_address": "452 Peppers Ferry Rd\nChristiansburg, VA 24073", "latitude": 37.1622239, "state": "VA", "longitude": -80.432375, "stars": 2.5, "schools": ["Virginia Tech"], "open": false, "categories": ["Italian", "Restaurants"], "photo_url": "http://s3-media3.ak.yelpcdn.com/bphoto/IuUvZoHawSu7ZrLc8Gw1tg/ms.jpg"}, {"city": "Blacksburg", "review_count": 8, "name": "Five Guys Burger and Fries", "neighborhoods": [], "url": "http://www.yelp.com/biz/five-guys-burger-and-fries-blacksburg", "type": "business", "business_id": "PMduIGhezzKOdEsjEX4llg", "full_address": "880 University City Blvd\nBlacksburg, VA 24060", "latitude": 37.2357895, "state": "VA", "longitude": -80.4340357, "stars": 4.0, "schools": ["Virginia Tech"], "open": true, "categories": ["American (New)", "Restaurants"], "photo_url": "http://s3-media1.ak.yelpcdn.com/bphoto/S_4iKWp-1FDISRHbM6Iycw/ms.jpg"}, {"city": "Blacksburg", "review_count": 2, "name": "Windsor Hills Apartments", "neighborhoods": [], "url": "http://www.yelp.com/biz/windsor-hills-apartments-blacksburg-3", "type": "business", "business_id": "WoQiLPt_Rp4u2Wpd03jNQw", "full_address": "200 Hampton Court\nBlacksburg, VA 24060", "latitude": 37.23942, "state": "VA", "longitude": -80.3969418, "stars": 4.5, "schools": ["Virginia Tech"], "open": true, "categories": ["Home Services", "Real Estate", "Apartments"], "photo_url": "http://s3-media4.ak.yelpcdn.com/bphoto/SrB0UlQEr-pwAOWpMhCYVQ/ms.jpg"}, {"city": "Blacksburg", "review_count": 10, "name": "Benny Marzano's", "neighborhoods": [], "url": "http://www.yelp.com/biz/benny-marzanos-blacksburg", "type": "business", "business_id": "bsqCkCccS5LY1X5Ub75JBQ", "full_address": "110 Draper Rd NW\nBlacksburg, VA 24060", "latitude": 37.2294, "state": "VA", "longitude": -80.4151, "stars": 4.0, "schools": ["Virginia Tech"], "open": true, "categories": ["Pizza", "Restaurants"], "photo_url": "http://s3-media4.ak.yelpcdn.com/bphoto/gJtn864Y8yoZ0eduFcyugg/ms.jpg"}, {"city": "Christiansburg", "review_count": 2, "name": "Walmart", "neighborhoods": [], "url": "http://www.yelp.com/biz/walmart-christiansburg", "type": "business", "business_id": "Vd9gGFmHfsfQE9Ytxnr85Q", "full_address": "2400 N Franklin St\nChristiansburg, VA 24073", "latitude": 37.1606, "state": "VA", "longitude": -80.4255, "stars": 3.0, "schools": ["Virginia Tech"], "open": true, "categories": ["Department Stores", "Grocery", "Fashion", "Shopping", "Food", "Mobile Phones"], "photo_url": "http://s3-media2.ak.yelpcdn.com/bphoto/4LcV-UzP5fJqVr5Zlt699w/ms.jpg"}, {"city": "Blacksburg", "review_count": 2, "name": "Anytime Fitness", "neighborhoods": [], "url": "http://www.yelp.com/biz/anytime-fitness-blacksburg-3", "type": "business", "business_id": "ZTmscFTnfFVrcEO8iUGLnA", "full_address": "1480 S Main St\nSte 108\nBlacksburg, VA 24060", "latitude": 37.2157379, "state": "VA", "longitude": -80.4020719, "stars": 4.5, "schools": ["Virginia Tech"], "open": true, "categories": ["Active Life", "Gyms", "Trainers", "Fitness & Instruction"], "photo_url": "http://s3-media3.ak.yelpcdn.com/bphoto/4pAs_rypZaAuEMkqXJ5V_Q/ms.jpg"}, {"city": "Blacksburg", "review_count": 10, "name": "Ceritano's Ristorante", "neighborhoods": [], "url": "http://www.yelp.com/biz/ceritanos-ristorante-blacksburg", "type": "business", "business_id": "6ke_-lV12SwP0ebcGFErZA", "full_address": "428 N Main St\nBlacksburg, VA 24060", "latitude": 37.2317683, "state": "VA", "longitude": -80.4162282, "stars": 3.5, "schools": ["Virginia Tech"], "open": true, "categories": ["Italian", "Pizza", "Restaurants"], "photo_url": "http://s3-media1.ak.yelpcdn.com/assets/2/www/img/924a6444ca6c/gfx/blank_biz_medium.gif"}, {"city": "Blacksburg", "review_count": 2, "name": "Poor Billy's Sushi Restaurant", "neighborhoods": [], "url": "http://www.yelp.com/biz/poor-billys-sushi-restaurant-blacksburg", "type": "business", "business_id": "cv1AfDz53DzWftlHh-58pg", "full_address": "126 Jackson St NW\nBlacksburg, VA 24060", "latitude": 37.229726, "state": "VA", "longitude": -80.414834, "stars": 1.5, "schools": ["Virginia Tech"], "open": true, "categories": ["Sushi Bars", "Restaurants"], "photo_url": "http://s3-media1.ak.yelpcdn.com/assets/2/www/img/924a6444ca6c/gfx/blank_biz_medium.gif"}, {"city": "Blacksburg", "review_count": 2, "name": "New Image Barber Stylists", "neighborhoods": [], "url": "http://www.yelp.com/biz/new-image-barber-stylists-blacksburg", "type": "business", "business_id": "W9pPua-Att6aQBcw01eUNA", "full_address": "460 Turner St NW Ste 208\nBlacksburg, VA 24060", "latitude": 37.2332597, "state": "VA", "longitude": -80.4226729, "stars": 3.0, "schools": ["Virginia Tech"], "open": true, "categories": ["Barbers", "Beauty and Spas"], "photo_url": "http://s3-media2.ak.yelpcdn.com/bphoto/D8LREcqcB4kiqQNpMPNsLg/ms.jpg"}, {"city": "Blacksburg", "review_count": 2, "name": "Tech Bookstore", "neighborhoods": [], "url": "http://www.yelp.com/biz/tech-bookstore-blacksburg", "type": "business", "business_id": "4RIKT85CiALL1ooatFKV7w", "full_address": "118 S Main St\nBlacksburg, VA 24060", "latitude": 37.2284, "state": "VA", "longitude": -80.4139, "stars": 4.0, "schools": ["Virginia Tech"], "open": true, "categories": ["Books, Mags, Music and Video", "Shopping", "Bookstores"], "photo_url": "http://s3-media1.ak.yelpcdn.com/assets/2/www/img/924a6444ca6c/gfx/blank_biz_medium.gif"}, {"city": "Blacksburg", "review_count": 60, "name": "Cabo Fish Taco", "neighborhoods": [], "url": "http://www.yelp.com/biz/cabo-fish-taco-blacksburg", "type": "business", "business_id": "aURgpKldq6YKqAleHaFUtA", "full_address": "117 S Main St\nBlacksburg, VA 24060", "latitude": 37.2288, "state": "VA", "longitude": -80.4131, "stars": 3.5, "schools": ["Virginia Tech"], "open": true, "categories": ["Seafood", "Mexican", "Restaurants"], "photo_url": "http://s3-media1.ak.yelpcdn.com/bphoto/zdzF_qbkBSUjpSYE6GVoSw/ms.jpg"}, {"city": "Blacksburg", "review_count": 17, "name": "Lyric Theatre", "neighborhoods": [], "url": "http://www.yelp.com/biz/lyric-theatre-blacksburg", "type": "business", "business_id": "CQDgwHALlXTgvfOd0HoH8g", "full_address": "135 College Ave\nBlacksburg, VA 24060", "latitude": 37.230253, "state": "VA", "longitude": -80.4159411, "stars": 5.0, "schools": ["Virginia Tech"], "open": true, "categories": ["Arts & Entertainment", "Cinema", "Performing Arts"], "photo_url": "http://s3-media1.ak.yelpcdn.com/assets/2/www/img/924a6444ca6c/gfx/blank_biz_medium.gif"}, {"city": "Blacksburg", "review_count": 8, "name": "China Inn Restaurant", "neighborhoods": [], "url": "http://www.yelp.com/biz/china-inn-restaurant-blacksburg", "type": "business", "business_id": "T6eavqkeaIrv4giuCeXTPw", "full_address": "401 Draper Rd SW\nBlacksburg, VA 24060", "latitude": 37.2267257, "state": "VA", "longitude": -80.412471, "stars": 3.5, "schools": ["Virginia Tech"], "open": true, "categories": ["Chinese", "Restaurants"], "photo_url": "http://s3-media1.ak.yelpcdn.com/assets/2/www/img/924a6444ca6c/gfx/blank_biz_medium.gif"}, {"city": "Blacksburg", "review_count": 4, "name": "Jimmy Johns Gourmet Sandwiches", "neighborhoods": [], "url": "http://www.yelp.com/biz/jimmy-johns-gourmet-sandwiches-blacksburg", "type": "business", "business_id": "zTuPYiRzmeYZqjxTeAqhSA", "full_address": "217 College Ave\nBlacksburg, VA 24060", "latitude": 37.2299, "state": "VA", "longitude": -80.41681, "stars": 4.0, "schools": ["Virginia Tech"], "open": true, "categories": ["Sandwiches", "Restaurants"], "photo_url": "http://s3-media1.ak.yelpcdn.com/bphoto/0iUqSAxngdne9sFtTlk4Iw/ms.jpg"}, {"city": "Blacksburg", "review_count": 7, "name": "Sal's Italian Restaurant & Pizzeria", "neighborhoods": [], "url": "http://www.yelp.com/biz/sals-italian-restaurant-and-pizzeria-blacksburg", "type": "business", "business_id": "dZwZlfR-FZkRmA5D4PtMaA", "full_address": "1440 S Main St\nSte 110\nBlacksburg, VA 24060", "latitude": 37.2162555, "state": "VA", "longitude": -80.4010657, "stars": 3.5, "schools": ["Virginia Tech"], "open": true, "categories": ["Italian", "Pizza", "Restaurants"], "photo_url": "http://s3-media1.ak.yelpcdn.com/assets/2/www/img/924a6444ca6c/gfx/blank_biz_medium.gif"}, {"city": "Blacksburg", "review_count": 7, "name": "Moe's Southwest Grill", "neighborhoods": [], "url": "http://www.yelp.com/biz/moes-southwest-grill-blacksburg", "type": "business", "business_id": "MyU7EzjeeWriyDwkenfLqA", "full_address": "239 N Main Street\nBlacksburg, VA 24060", "latitude": 37.2302682, "state": "VA", "longitude": -80.4149462, "stars": 2.5, "schools": ["Virginia Tech"], "open": true, "categories": ["Tex-Mex", "Restaurants"], "photo_url": "http://s3-media1.ak.yelpcdn.com/assets/2/www/img/924a6444ca6c/gfx/blank_biz_medium.gif"}, {"city": "Blacksburg", "review_count": 2, "name": "Comfort Inn of Blacksburg", "neighborhoods": [], "url": "http://www.yelp.com/biz/comfort-inn-of-blacksburg-blacksburg", "type": "business", "business_id": "25iB_frRzVEe9aM5KfE4-w", "full_address": "3705 S Main St\nBlacksburg, VA 24060", "latitude": 37.185339, "state": "VA", "longitude": -80.408375, "stars": 3.5, "schools": ["Virginia Tech"], "open": true, "categories": ["Hotels & Travel", "Event Planning & Services", "Hotels"], "photo_url": "http://s3-media4.ak.yelpcdn.com/bphoto/J_i_RljvcXpiQFm4dBRx5g/ms.jpg"}, {"city": "Blacksburg", "review_count": 29, "name": "Sharkey's", "neighborhoods": [], "url": "http://www.yelp.com/biz/sharkeys-blacksburg", "type": "business", "business_id": "tJwomYMNjpd4A31rDMXMCw", "full_address": "220 N Main St\nBlacksburg, VA 24060", "latitude": 37.2305367, "state": "VA", "longitude": -80.4152119, "stars": 3.0, "schools": ["Virginia Tech"], "open": true, "categories": ["Bars", "Pool Halls", "Nightlife", "Restaurants"], "photo_url": "http://s3-media4.ak.yelpcdn.com/bphoto/Rb5r0r7CRgmnTfA3GZI_HA/ms.jpg"}, {"city": "Blacksburg", "review_count": 3, "name": "Village Groomer", "neighborhoods": [], "url": "http://www.yelp.com/biz/village-groomer-blacksburg", "type": "business", "business_id": "mIofURiTo8ArfltgQxKceQ", "full_address": "1531 N Main St\nSte A\nBlacksburg, VA 24060", "latitude": 37.2518418, "state": "VA", "longitude": -80.4114864, "stars": 4.0, "schools": ["Virginia Tech"], "open": true, "categories": ["Pet Services", "Pet Groomers", "Pet Boarding/Pet Sitting", "Pets"], "photo_url": "http://s3-media1.ak.yelpcdn.com/assets/2/www/img/924a6444ca6c/gfx/blank_biz_medium.gif"}, {"city": "Blacksburg", "review_count": 2, "name": "Bcr Real Estate", "neighborhoods": [], "url": "http://www.yelp.com/biz/bcr-real-estate-blacksburg", "type": "business", "business_id": "6bH0dXRJEQKxTJCTIaY92A", "full_address": "PO Box 986\nBlacksburg, VA 24063", "latitude": 37.2299999, "state": "VA", "longitude": -80.41, "stars": 1.0, "schools": ["Virginia Tech"], "open": true, "categories": ["Real Estate Services", "Property Management", "Home Services", "Real Estate", "Apartments"], "photo_url": "http://s3-media1.ak.yelpcdn.com/assets/2/www/img/924a6444ca6c/gfx/blank_biz_medium.gif"}, {"city": "Blacksburg", "review_count": 36, "name": "Souvlaki", "neighborhoods": [], "url": "http://www.yelp.com/biz/souvlaki-blacksburg-2", "type": "business", "business_id": "-QNnL7C_z7NxiCarq3VZTQ", "full_address": "201 College Ave\nBlacksburg, VA 24060", "latitude": 37.2299, "state": "VA", "longitude": -80.4163, "stars": 4.0, "schools": ["Virginia Tech"], "open": true, "categories": ["Greek", "Mediterranean", "Restaurants"], "photo_url": "http://s3-media3.ak.yelpcdn.com/bphoto/an5WaKUAd4Om6nVw6nJzuw/ms.jpg"}, {"city": "Blacksburg", "review_count": 2, "name": "El Guadalupes", "neighborhoods": [], "url": "http://www.yelp.com/biz/el-guadalupes-blacksburg", "type": "business", "business_id": "XdUJ1x8JZEB5Q1wer-c28g", "full_address": "1410 S Main St\nBlacksburg, VA 24060", "latitude": 37.2162768, "state": "VA", "longitude": -80.4010713, "stars": 4.0, "schools": ["Virginia Tech"], "open": false, "categories": ["Mexican", "Restaurants"], "photo_url": "http://s3-media1.ak.yelpcdn.com/assets/2/www/img/924a6444ca6c/gfx/blank_biz_medium.gif"}, {"city": "Blacksburg", "review_count": 5, "name": "The Chocolate Spike", "neighborhoods": [], "url": "http://www.yelp.com/biz/the-chocolate-spike-blacksburg", "type": "business", "business_id": "p-YvmgcTcpzNS44SSV-26g", "full_address": "1560 S Main St\nSte 118\nBlacksburg, VA 24060", "latitude": 37.213553, "state": "VA", "longitude": -80.4006212, "stars": 3.5, "schools": ["Virginia Tech"], "open": true, "categories": ["Food", "Desserts"], "photo_url": "http://s3-media2.ak.yelpcdn.com/bphoto/7zCon61_rs_Oziv1-hja0A/ms.jpg"}, {"city": "Blacksburg", "review_count": 8, "name": "Sub Station II", "neighborhoods": [], "url": "http://www.yelp.com/biz/sub-station-ii-blacksburg", "type": "business", "business_id": "nuU8Wg64xGbsyK_DaOma-w", "full_address": "112 Turner St NW\nBlacksburg, VA 24060", "latitude": 37.2324, "state": "VA", "longitude": -80.419, "stars": 4.0, "schools": ["Virginia Tech"], "open": true, "categories": ["Sandwiches", "Restaurants"], "photo_url": "http://s3-media2.ak.yelpcdn.com/bphoto/qRVDzYHLJVj8nq2sBPapqw/ms.jpg"}, {"city": "Blacksburg", "review_count": 5, "name": "Top Nail", "neighborhoods": [], "url": "http://www.yelp.com/biz/top-nail-blacksburg", "type": "business", "business_id": "zVrWseVuOpMapq_Lq8H6_w", "full_address": "860 University City Blvd\nSte 104\nBlacksburg, VA 24060", "latitude": 37.2355, "state": "VA", "longitude": -80.4329, "stars": 3.5, "schools": ["Virginia Tech"], "open": true, "categories": ["Nail Salons", "Beauty and Spas"], "photo_url": "http://s3-media2.ak.yelpcdn.com/bphoto/rvd1oRZfaAl4y6OmzaHv2g/ms.jpg"}, {"city": "Christiansburg", "review_count": 5, "name": "Cinco De Mayo Resturant", "neighborhoods": [], "url": "http://www.yelp.com/biz/cinco-de-mayo-resturant-christiansburg", "type": "business", "business_id": "v070pCAUGi1NBwD7_Jijdg", "full_address": "700 New River Rd\nChristiansburg, VA 24073", "latitude": 37.164126, "state": "VA", "longitude": -80.429454, "stars": 3.5, "schools": ["Virginia Tech"], "open": true, "categories": ["Mexican", "Restaurants"], "photo_url": "http://s3-media1.ak.yelpcdn.com/assets/2/www/img/924a6444ca6c/gfx/blank_biz_medium.gif"}, {"city": "Blacksburg", "review_count": 11, "name": "London Underground Pub Ltd", "neighborhoods": [], "url": "http://www.yelp.com/biz/london-underground-pub-ltd-blacksburg", "type": "business", "business_id": "I_CFI8tpJHkGthEet3v3WA", "full_address": "112 N Main St\nBlacksburg, VA 24060", "latitude": 37.2295952, "state": "VA", "longitude": -80.414106, "stars": 3.5, "schools": ["Virginia Tech"], "open": true, "categories": ["Restaurants"], "photo_url": "http://s3-media3.ak.yelpcdn.com/bphoto/BcpozthxuUruYeEykektOA/ms.jpg"}, {"city": "Blacksburg", "review_count": 2, "name": "Famous Anthony's", "neighborhoods": [], "url": "http://www.yelp.com/biz/famous-anthonys-blacksburg-3", "type": "business", "business_id": "KiZW3K-xKiTX_JL5MVNYuA", "full_address": "1353 S Main St\nBlacksburg, VA 24060", "latitude": 37.2164948, "state": "VA", "longitude": -80.400973, "stars": 2.0, "schools": ["Virginia Tech"], "open": true, "categories": ["American (Traditional)", "Restaurants"], "photo_url": "http://s3-media1.ak.yelpcdn.com/assets/2/www/img/924a6444ca6c/gfx/blank_biz_medium.gif"}, {"city": "Blacksburg", "review_count": 3, "name": "Panera Bread", "neighborhoods": [], "url": "http://www.yelp.com/biz/panera-bread-blacksburg", "type": "business", "business_id": "GJIZlVlPncUQk9x1EjgnFA", "full_address": "715 University City Blvd\nBlacksburg, VA 24060", "latitude": 37.232106, "state": "VA", "longitude": -80.432603, "stars": 3.5, "schools": ["Virginia Tech"], "open": true, "categories": ["Food", "Bakeries", "Coffee & Tea", "Sandwiches", "Restaurants"], "photo_url": "http://s3-media2.ak.yelpcdn.com/bphoto/uty3_xhifVpb0pK2nammGQ/ms.jpg"}, {"city": "Christiansburg", "review_count": 15, "name": "Kabuki Japanese Steak House", "neighborhoods": [], "url": "http://www.yelp.com/biz/kabuki-japanese-steak-house-christiansburg", "type": "business", "business_id": "B1yzS_JFgWxQVHsqQp-d7g", "full_address": "120 Arbor Dr\nChristiansburg, VA 24073", "latitude": 37.1691, "state": "VA", "longitude": -80.4188999, "stars": 2.5, "schools": ["Virginia Tech"], "open": true, "categories": ["Japanese", "Restaurants"], "photo_url": "http://s3-media4.ak.yelpcdn.com/bphoto/NoQFQdpgkq0CNAyVzAyZ-g/ms.jpg"}, {"city": "Blacksburg", "review_count": 13, "name": "Bollo's Cafe & Bakery", "neighborhoods": [], "url": "http://www.yelp.com/biz/bollos-cafe-and-bakery-blacksburg", "type": "business", "business_id": "rO-I1eS_92gzFkclW2ZvNg", "full_address": "206 Draper Rd NW\nBlacksburg, VA 24060", "latitude": 37.2299, "state": "VA", "longitude": -80.4158999, "stars": 3.5, "schools": ["Virginia Tech"], "open": true, "categories": ["Food", "Bakeries", "Coffee & Tea"], "photo_url": "http://s3-media4.ak.yelpcdn.com/bphoto/RKOOtZ9HT1Ny2QHL66V7xQ/ms.jpg"}, {"city": "Blacksburg", "review_count": 2, "name": "Crossroads Cd's", "neighborhoods": [], "url": "http://www.yelp.com/biz/crossroads-cds-blacksburg", "type": "business", "business_id": "ZhwZCCBVmzwumpO8M27gIg", "full_address": "239 N Main St\nBlacksburg, VA 24060", "latitude": 37.2304311, "state": "VA", "longitude": -80.4151526, "stars": 4.5, "schools": ["Virginia Tech"], "open": false, "categories": ["Videos and Video Game Rental", "Books, Mags, Music and Video", "Shopping", "Music & DVDs"], "photo_url": "http://s3-media1.ak.yelpcdn.com/assets/2/www/img/924a6444ca6c/gfx/blank_biz_medium.gif"}, {"city": "Blacksburg", "review_count": 3, "name": "Mad Dog", "neighborhoods": [], "url": "http://www.yelp.com/biz/mad-dog-blacksburg", "type": "business", "business_id": "510tW2fDebZpOQybVwUBHg", "full_address": "109 N Main St\nBlacksburg, VA 24060", "latitude": 37.2293, "state": "VA", "longitude": -80.4141999, "stars": 2.5, "schools": ["Virginia Tech"], "open": true, "categories": ["Women's Clothing", "Fashion", "Shopping"], "photo_url": "http://s3-media1.ak.yelpcdn.com/assets/2/www/img/924a6444ca6c/gfx/blank_biz_medium.gif"}, {"city": "Blacksburg", "review_count": 7, "name": "Frosty Parrot", "neighborhoods": [], "url": "http://www.yelp.com/biz/frosty-parrot-blacksburg", "type": "business", "business_id": "8Mea-WBqlNpe_INFg-Xvfw", "full_address": "125 N Main St\nBlacksburg, VA 24060", "latitude": 37.2297, "state": "VA", "longitude": -80.4147, "stars": 4.0, "schools": ["Virginia Tech"], "open": true, "categories": ["Food", "Ice Cream & Frozen Yogurt"], "photo_url": "http://s3-media1.ak.yelpcdn.com/assets/2/www/img/924a6444ca6c/gfx/blank_biz_medium.gif"}, {"city": "Blacksburg", "review_count": 9, "name": "Excellent Table", "neighborhoods": [], "url": "http://www.yelp.com/biz/excellent-table-blacksburg", "type": "business", "business_id": "a80CAB0Wa7-NzJtPRAt0ug", "full_address": "119 North Main St\nSte 103\nBlacksburg, VA 24060", "latitude": 37.229484, "state": "VA", "longitude": -80.4140856, "stars": 4.0, "schools": ["Virginia Tech"], "open": true, "categories": ["Ethiopian", "Restaurants"], "photo_url": "http://s3-media2.ak.yelpcdn.com/bphoto/Na7MNMRFVngWDE0oVMletQ/ms.jpg"}, {"city": "Blacksburg", "review_count": 11, "name": "Cafe MeKong", "neighborhoods": [], "url": "http://www.yelp.com/biz/cafe-mekong-blacksburg", "type": "business", "business_id": "z3m9LqyBlEIFhY3EbUXPHg", "full_address": "1411 S Main St\nBlacksburg, VA 24060", "latitude": 37.216148, "state": "VA", "longitude": -80.3995869, "stars": 3.5, "schools": ["Virginia Tech"], "open": true, "categories": ["Cafes", "Restaurants"], "photo_url": "http://s3-media2.ak.yelpcdn.com/bphoto/6D-ds3tYZsbsqW77J8pvJA/ms.jpg"}, {"city": "Blacksburg", "review_count": 35, "name": "Bull and Bones Brewhaus and Grill", "neighborhoods": [], "url": "http://www.yelp.com/biz/bull-and-bones-brewhaus-and-grill-blacksburg", "type": "business", "business_id": "KsrMCDF689P4bTBrrbTLjA", "full_address": "1470 S Main St\nBlacksburg, VA 24060", "latitude": 37.2144133, "state": "VA", "longitude": -80.4005244, "stars": 3.5, "schools": ["Virginia Tech"], "open": true, "categories": ["American (Traditional)", "Barbeque", "Restaurants"], "photo_url": "http://s3-media1.ak.yelpcdn.com/bphoto/N2ePW5RoPT5-yOXJnvACKw/ms.jpg"}, {"city": "Blacksburg", "review_count": 4, "name": "Kibbles On Main", "neighborhoods": [], "url": "http://www.yelp.com/biz/kibbles-on-main-blacksburg", "type": "business", "business_id": "7GSobyijoZeDKWGLUOsXgA", "full_address": "1531 N Main St\nBlacksburg, VA 24060", "latitude": 37.2518418, "state": "VA", "longitude": -80.4114864, "stars": 5.0, "schools": ["Virginia Tech"], "open": true, "categories": ["Pets", "Pet Stores"], "photo_url": "http://s3-media1.ak.yelpcdn.com/assets/2/www/img/924a6444ca6c/gfx/blank_biz_medium.gif"}, {"city": "Blacksburg", "review_count": 3, "name": "Happy Wok", "neighborhoods": [], "url": "http://www.yelp.com/biz/happy-wok-blacksburg", "type": "business", "business_id": "vnHiLxW0kbWrMv19-rNYwg", "full_address": "133 College Ave\nBlacksburg, VA 24060", "latitude": 37.230569, "state": "VA", "longitude": -80.415724, "stars": 3.5, "schools": ["Virginia Tech"], "open": true, "categories": [], "photo_url": "http://s3-media2.ak.yelpcdn.com/bphoto/BlmyNnqBRJClSKROfvGIKQ/ms.jpg"}, {"city": "Blacksburg", "review_count": 20, "name": "Zeppoli's", "neighborhoods": [], "url": "http://www.yelp.com/biz/zeppolis-blacksburg", "type": "business", "business_id": "wk8EiiHeB3TFx0YCOOityA", "full_address": "810 University City Blvd\nBlacksburg, VA 24060", "latitude": 37.2338856, "state": "VA", "longitude": -80.4329852, "stars": 3.0, "schools": ["Virginia Tech"], "open": true, "categories": ["Food", "Beer, Wine & Spirits", "Restaurants"], "photo_url": "http://s3-media1.ak.yelpcdn.com/bphoto/Nk7G3zRlz0320BRAfN81rg/ms.jpg"}, {"city": "Blacksburg", "review_count": 6, "name": "El Rodeo", "neighborhoods": [], "url": "http://www.yelp.com/biz/el-rodeo-blacksburg-2", "type": "business", "business_id": "fmi0HUhetIjMtqv9JXS1HQ", "full_address": "1540 S Main St\nSte 100\nBlacksburg, VA 24060", "latitude": 37.2132659, "state": "VA", "longitude": -80.4002257, "stars": 3.0, "schools": ["Virginia Tech"], "open": true, "categories": ["Mexican", "Restaurants"], "photo_url": "http://s3-media3.ak.yelpcdn.com/bphoto/B-NEzRIHyNnBK9qH_MPGuw/ms.jpg"}, {"city": "Blacksburg", "review_count": 8, "name": "Log Cabin BBQ", "neighborhoods": [], "url": "http://www.yelp.com/biz/log-cabin-bbq-blacksburg", "type": "business", "business_id": "DFjhSd1CRQBarXbsyPT4WQ", "full_address": "781 University City Blvd\nBlacksburg, VA 24060", "latitude": 37.234262, "state": "VA", "longitude": -80.4333338, "stars": 3.0, "schools": ["Virginia Tech"], "open": true, "categories": ["Barbeque", "Restaurants"], "photo_url": "http://s3-media4.ak.yelpcdn.com/bphoto/kYZhvQLOtFGc0iyATdZbug/ms.jpg"}, {"city": "Blacksburg", "review_count": 2, "name": "Blacksburg Farmers Market", "neighborhoods": [], "url": "http://www.yelp.com/biz/blacksburg-farmers-market-blacksburg", "type": "business", "business_id": "bLxwwBFOgqpxUiwDKCz9dw", "full_address": "PO Box 568\nBlacksburg, VA 24060", "latitude": 37.2287911, "state": "VA", "longitude": -80.4147551, "stars": 4.5, "schools": ["Virginia Tech"], "open": true, "categories": ["Food", "Farmers Market"], "photo_url": "http://s3-media1.ak.yelpcdn.com/assets/2/www/img/924a6444ca6c/gfx/blank_biz_medium.gif"}, {"city": "Christiansburg", "review_count": 3, "name": "Wal Mart", "neighborhoods": [], "url": "http://www.yelp.com/biz/wal-mart-christiansburg", "type": "business", "business_id": "GBC4DyQOspHcFnDECKF4ig", "full_address": "2705 Market St\nChristiansburg, VA 24073", "latitude": 37.1661, "state": "VA", "longitude": -80.4207, "stars": 3.5, "schools": ["Virginia Tech"], "open": true, "categories": ["Department Stores", "Fashion", "Shopping"], "photo_url": "http://s3-media1.ak.yelpcdn.com/assets/2/www/img/924a6444ca6c/gfx/blank_biz_medium.gif"}, {"city": "Christiansburg", "review_count": 2, "name": "Belk", "neighborhoods": [], "url": "http://www.yelp.com/biz/belk-christiansburg", "type": "business", "business_id": "0CQcjl6Gy5CnILb3fA6u_w", "full_address": "650 New River Rd\nChristiansburg, VA 24073", "latitude": 37.1651736, "state": "VA", "longitude": -80.4295943, "stars": 4.0, "schools": ["Virginia Tech"], "open": true, "categories": ["Department Stores", "Fashion", "Shopping"], "photo_url": "http://s3-media1.ak.yelpcdn.com/assets/2/www/img/924a6444ca6c/gfx/blank_biz_medium.gif"}, {"city": "Christiansburg", "review_count": 4, "name": "Target", "neighborhoods": [], "url": "http://www.yelp.com/biz/target-christiansburg", "type": "business", "business_id": "2ogJrhy4J_4gitCH1FVGtA", "full_address": "195 Conston Ave\nChristiansburg, VA 24073", "latitude": 37.1572249, "state": "VA", "longitude": -80.4238037, "stars": 4.0, "schools": ["Virginia Tech"], "open": true, "categories": ["Department Stores", "Fashion", "Shopping"], "photo_url": "http://s3-media2.ak.yelpcdn.com/bphoto/dGQBkHS7yUGGDs4khz6STQ/ms.jpg"}, {"city": "Blacksburg", "review_count": 9, "name": "Hokie House", "neighborhoods": [], "url": "http://www.yelp.com/biz/hokie-house-blacksburg", "type": "business", "business_id": "Ij5vTLLpmulfCsK64jGGxw", "full_address": "322 N Main St\nBlacksburg, VA 24060", "latitude": 37.2312489, "state": "VA", "longitude": -80.415748, "stars": 3.0, "schools": ["Virginia Tech"], "open": true, "categories": ["Bars", "American (Traditional)", "Nightlife", "Restaurants"], "photo_url": "http://s3-media3.ak.yelpcdn.com/bphoto/jIdY0U7a7unXs6IvoRTpcw/ms.jpg"}, {"city": "Blacksburg", "review_count": 67, "name": "Gillie's Cuisine", "neighborhoods": [], "url": "http://www.yelp.com/biz/gillies-cuisine-blacksburg", "type": "business", "business_id": "gomSgjEesyhMgdN8w2tBOA", "full_address": "153 College Ave\nBlacksburg, VA 24060", "latitude": 37.2302202, "state": "VA", "longitude": -80.4159916, "stars": 4.0, "schools": ["Virginia Tech"], "open": true, "categories": ["Vegetarian", "Vegan", "Restaurants"], "photo_url": "http://s3-media4.ak.yelpcdn.com/bphoto/QXlunJu_P88gSA_CkHyw8Q/ms.jpg"}, {"city": "Christiansburg", "review_count": 3, "name": "Cici's Pizza", "neighborhoods": [], "url": "http://www.yelp.com/biz/cicis-pizza-christiansburg", "type": "business", "business_id": "z2o5kP4SZVbsO5UCH1rP0g", "full_address": "210 Marshall Dr\nChristiansburg, VA 24073", "latitude": 37.1622882, "state": "VA", "longitude": -80.424677, "stars": 2.5, "schools": ["Virginia Tech"], "open": true, "categories": ["Pizza", "Restaurants"], "photo_url": "http://s3-media1.ak.yelpcdn.com/assets/2/www/img/924a6444ca6c/gfx/blank_biz_medium.gif"}, {"city": "Blacksburg", "review_count": 3, "name": "Body Harmony Massage Therapy", "neighborhoods": [], "url": "http://www.yelp.com/biz/body-harmony-massage-therapy-blacksburg-2", "type": "business", "business_id": "TY9jOmIxblLXN-5OcRwW-Q", "full_address": "104 Faculty St\nSte 206\nBlacksburg, VA 24060", "latitude": 37.2321178, "state": "VA", "longitude": -80.4164724, "stars": 5.0, "schools": ["Virginia Tech"], "open": true, "categories": ["Massage", "Beauty and Spas"], "photo_url": "http://s3-media4.ak.yelpcdn.com/bphoto/e24U8-bqdhuW07owFDnrYw/ms.jpg"}, {"city": "Blacksburg", "review_count": 14, "name": "Gumby's Pizza", "neighborhoods": [], "url": "http://www.yelp.com/biz/gumbys-pizza-blacksburg", "type": "business", "business_id": "NLfQp6SUK9vwv3WNURbjIg", "full_address": "210 Prices Fork Rd\nSte A\nBlacksburg, VA 24060", "latitude": 37.2348, "state": "VA", "longitude": -80.4217, "stars": 3.5, "schools": ["Virginia Tech"], "open": true, "categories": ["Pizza", "Restaurants"], "photo_url": "http://s3-media1.ak.yelpcdn.com/bphoto/zcUXFbbNuEFYrP7v9160_w/ms.jpg"}, {"city": "Blacksburg", "review_count": 13, "name": "Backstreets Restaurant", "neighborhoods": [], "url": "http://www.yelp.com/biz/backstreets-restaurant-blacksburg", "type": "business", "business_id": "voXoIsapBR30q_7PgxVeAA", "full_address": "207 S Main St\nBlacksburg, VA 24060", "latitude": 37.2281068, "state": "VA", "longitude": -80.4125301, "stars": 3.0, "schools": ["Virginia Tech"], "open": true, "categories": ["Italian", "Restaurants"], "photo_url": "http://s3-media1.ak.yelpcdn.com/assets/2/www/img/924a6444ca6c/gfx/blank_biz_medium.gif"}, {"city": "Blacksburg", "review_count": 3, "name": "Custom Meats", "neighborhoods": [], "url": "http://www.yelp.com/biz/custom-meats-blacksburg", "type": "business", "business_id": "jw8uu1q59V4-OBfLbFWxsQ", "full_address": "2051 Merrimac Rd\nBlacksburg, VA 24060", "latitude": 37.2043, "state": "VA", "longitude": -80.461, "stars": 5.0, "schools": ["Virginia Tech"], "open": true, "categories": ["Food", "Specialty Food", "Meat Shops"], "photo_url": "http://s3-media1.ak.yelpcdn.com/assets/2/www/img/924a6444ca6c/gfx/blank_biz_medium.gif"}, {"city": "Christiansburg", "review_count": 3, "name": "Red Lobster", "neighborhoods": [], "url": "http://www.yelp.com/biz/red-lobster-christiansburg", "type": "business", "business_id": "2C7Gyve_y8WRiJmB28k38g", "full_address": "75 Peppers Ferry Road\nChristiansburg, VA 24073", "latitude": 37.1635096, "state": "VA", "longitude": -80.4248305, "stars": 3.5, "schools": ["Virginia Tech"], "open": true, "categories": ["Seafood", "Restaurants"], "photo_url": "http://s3-media2.ak.yelpcdn.com/bphoto/qD0-Gsreu3Py8wJa2PQ0Ag/ms.jpg"}, {"city": "Blacksburg", "review_count": 2, "name": "Yogi Factory", "neighborhoods": [], "url": "http://www.yelp.com/biz/yogi-factory-blacksburg", "type": "business", "business_id": "UWCk_n8xoSZzpQQsf1mx_g", "full_address": "801 University City Blvd\nSte 16\nBlacksburg, VA 24060", "latitude": 37.2337, "state": "VA", "longitude": -80.4342, "stars": 5.0, "schools": ["Virginia Tech"], "open": true, "categories": ["Restaurants"], "photo_url": "http://s3-media3.ak.yelpcdn.com/bphoto/-cXrvn9dKPh4rPt8c1ljcA/ms.jpg"}, {"city": "Blacksburg", "review_count": 26, "name": "622 North", "neighborhoods": [], "url": "http://www.yelp.com/biz/622-north-blacksburg", "type": "business", "business_id": "HAXTUHm3RFucIbNZSpIU3A", "full_address": "622 N Main St\nBlacksburg, VA 24060", "latitude": 37.2344872, "state": "VA", "longitude": -80.4195237, "stars": 3.5, "schools": ["Virginia Tech"], "open": true, "categories": ["Wine Bars", "Bars", "American (New)", "Nightlife", "Restaurants"], "photo_url": "http://s3-media3.ak.yelpcdn.com/bphoto/4kytRGpEFjSkj75tn5TI5w/ms.jpg"}, {"city": "Christiansburg", "review_count": 2, "name": "Tataki", "neighborhoods": [], "url": "http://www.yelp.com/biz/tataki-christiansburg", "type": "business", "business_id": "PBZCrvjHasay0wqqI58IxA", "full_address": "50 Merrimac Rd\nChristiansburg, VA 24073", "latitude": 37.1763784, "state": "VA", "longitude": -80.4185556, "stars": 4.5, "schools": ["Virginia Tech"], "open": false, "categories": ["Japanese", "Restaurants"], "photo_url": "http://s3-media1.ak.yelpcdn.com/assets/2/www/img/924a6444ca6c/gfx/blank_biz_medium.gif"}, {"city": "Blacksburg", "review_count": 3, "name": "Xanadu Gifts", "neighborhoods": [], "url": "http://www.yelp.com/biz/xanadu-gifts-blacksburg", "type": "business", "business_id": "8gd212vWAszoQ4P40uBlmQ", "full_address": "101 S Main St\nBlacksburg, VA 24060", "latitude": 37.2294, "state": "VA", "longitude": -80.4136, "stars": 4.5, "schools": ["Virginia Tech"], "open": false, "categories": ["Flowers & Gifts", "Shopping"], "photo_url": "http://s3-media1.ak.yelpcdn.com/assets/2/www/img/924a6444ca6c/gfx/blank_biz_medium.gif"}, {"city": "Blacksburg", "review_count": 4, "name": "Courtyard Blacksburg", "neighborhoods": [], "url": "http://www.yelp.com/biz/courtyard-blacksburg-blacksburg", "type": "business", "business_id": "t7B9UjbFqdD0BbbYggtqsA", "full_address": "105 Southpark Dr\nBlacksburg, VA 24060", "latitude": 37.1992, "state": "VA", "longitude": -80.4012, "stars": 3.5, "schools": ["Virginia Tech"], "open": true, "categories": ["Hotels & Travel", "Event Planning & Services", "Hotels"], "photo_url": "http://s3-media4.ak.yelpcdn.com/bphoto/bIsXwDQe09dm5qpqIivdjQ/ms.jpg"}, {"city": "Christiansburg", "review_count": 8, "name": "O'Charley's", "neighborhoods": [], "url": "http://www.yelp.com/biz/o-charleys-christiansburg", "type": "business", "business_id": "vJFplxoIJO2MLpodACW7Vw", "full_address": "150 Laurel Street NE\nChristiansburg, VA 24073", "latitude": 37.1625328, "state": "VA", "longitude": -80.4204236, "stars": 3.0, "schools": ["Virginia Tech"], "open": true, "categories": ["Breakfast & Brunch", "American (Traditional)", "Restaurants"], "photo_url": "http://s3-media1.ak.yelpcdn.com/bphoto/Bgs9clE6WV7dc42Bl6702w/ms.jpg"}, {"city": "Blacksburg", "review_count": 2, "name": "Au Bon Pain", "neighborhoods": [], "url": "http://www.yelp.com/biz/au-bon-pain-blacksburg", "type": "business", "business_id": "o-orjPn9_bi_d3CCItXs0w", "full_address": "Squires Student Center\nVirginia Tech Campus\nBlacksburg, VA 24062", "latitude": 37.2294, "state": "VA", "longitude": -80.4144, "stars": 4.0, "schools": ["Virginia Tech"], "open": true, "categories": ["Soup", "Sandwiches", "Restaurants"], "photo_url": "http://s3-media1.ak.yelpcdn.com/assets/2/www/img/924a6444ca6c/gfx/blank_biz_medium.gif"}, {"city": "Blacksburg", "review_count": 3, "name": "Foxridge Apartments", "neighborhoods": [], "url": "http://www.yelp.com/biz/foxridge-apartments-blacksburg-2", "type": "business", "business_id": "yeVkVm4kFVO25iFjpGKAkg", "full_address": "750 Hethwood Blvd\nSte 100G\nBlacksburg, VA 24060", "latitude": 37.2159476, "state": "VA", "longitude": -80.4532985, "stars": 3.5, "schools": ["Virginia Tech"], "open": true, "categories": ["Home Services", "Real Estate", "Apartments"], "photo_url": "http://s3-media2.ak.yelpcdn.com/bphoto/dJvGCaAtM7q6vHzhtpdr9w/ms.jpg"}, {"city": "Blacksburg", "review_count": 2, "name": "Townside Inc Realtors Rentl Prop", "neighborhoods": [], "url": "http://www.yelp.com/biz/townside-inc-realtors-rentl-prop-blacksburg", "type": "business", "business_id": "3DtugUXX4WHOK2T34ZexXg", "full_address": "220 Professinl Prk Dr SE\nBlacksburg, VA 24060", "latitude": 37.1957, "state": "VA", "longitude": -80.4017, "stars": 1.0, "schools": ["Virginia Tech"], "open": true, "categories": ["Property Management", "Home Services", "Real Estate", "Apartments"], "photo_url": "http://s3-media1.ak.yelpcdn.com/assets/2/www/img/924a6444ca6c/gfx/blank_biz_medium.gif"}, {"city": "Blacksburg", "review_count": 5, "name": "DP Dough", "neighborhoods": [], "url": "http://www.yelp.com/biz/dp-dough-blacksburg", "type": "business", "business_id": "TMCgLFmkcs5px-U0iaW5ag", "full_address": "215 N Main St\nBlacksburg, VA 24060", "latitude": 37.230219, "state": "VA", "longitude": -80.414656, "stars": 4.0, "schools": ["Virginia Tech"], "open": true, "categories": [], "photo_url": "http://s3-media2.ak.yelpcdn.com/bphoto/ojM_NXviodb7bPFwrntKTA/ms.jpg"}, {"city": "Blacksburg", "review_count": 5, "name": "Hilton Garden Inn Blacksburg Hotel", "neighborhoods": [], "url": "http://www.yelp.com/biz/hilton-garden-inn-blacksburg-hotel-blacksburg", "type": "business", "business_id": "PDX3igOBbL_HhUD0ZM-e3Q", "full_address": "900 Plantation Rd.\nBlacksburg, VA 24060", "latitude": 37.2210123, "state": "VA", "longitude": -80.4415372, "stars": 4.0, "schools": ["Virginia Tech"], "open": true, "categories": ["Hotels & Travel", "Event Planning & Services", "Venues & Event Spaces", "Hotels"], "photo_url": "http://s3-media1.ak.yelpcdn.com/bphoto/olAde9DBiT8i6VqdHcc0FA/ms.jpg"}, {"city": "Blacksburg", "review_count": 18, "name": "Mike's Grill", "neighborhoods": [], "url": "http://www.yelp.com/biz/mikes-grill-blacksburg", "type": "business", "business_id": "nXXfB3-tIIZczK4byP8JWQ", "full_address": "418 N Main St\nBlacksburg, VA 24060", "latitude": 37.2317099, "state": "VA", "longitude": -80.4159745, "stars": 3.5, "schools": ["Virginia Tech"], "open": true, "categories": ["Burgers", "American (Traditional)", "Restaurants"], "photo_url": "http://s3-media1.ak.yelpcdn.com/assets/2/www/img/924a6444ca6c/gfx/blank_biz_medium.gif"}, {"city": "Blacksburg", "review_count": 2, "name": "Joe's Barber & Styling", "neighborhoods": [], "url": "http://www.yelp.com/biz/joes-barber-and-styling-blacksburg", "type": "business", "business_id": "UKxc6Evqc241352hA1O_TA", "full_address": "308 N Main St\nBlacksburg, VA 24060", "latitude": 37.230976, "state": "VA", "longitude": -80.4155381, "stars": 3.0, "schools": ["Virginia Tech"], "open": true, "categories": ["Barbers", "Beauty and Spas"], "photo_url": "http://s3-media1.ak.yelpcdn.com/assets/2/www/img/924a6444ca6c/gfx/blank_biz_medium.gif"}, {"city": "Blacksburg", "review_count": 2, "name": "Best Wishes Flowers & Gifts", "neighborhoods": [], "url": "http://www.yelp.com/biz/best-wishes-flowers-and-gifts-blacksburg", "type": "business", "business_id": "g4C7FFEIYjLHHWPiOKs4ag", "full_address": "210 Prices Fork Rd\nBlacksburg, VA 24060", "latitude": 37.2348, "state": "VA", "longitude": -80.4217, "stars": 5.0, "schools": ["Virginia Tech"], "open": true, "categories": ["Flowers & Gifts", "Shopping", "Florists"], "photo_url": "http://s3-media1.ak.yelpcdn.com/assets/2/www/img/924a6444ca6c/gfx/blank_biz_medium.gif"}, {"city": "Blacksburg", "review_count": 4, "name": "Eats Natural Foods", "neighborhoods": [], "url": "http://www.yelp.com/biz/eats-natural-foods-blacksburg", "type": "business", "business_id": "Y_HIPFeBEb1V8_eOrZt6wQ", "full_address": "708 N Main St\nBlacksburg, VA 24060", "latitude": 37.2353, "state": "VA", "longitude": -80.4202, "stars": 4.5, "schools": ["Virginia Tech"], "open": true, "categories": ["Food", "Specialty Food", "Health Markets"], "photo_url": "http://s3-media2.ak.yelpcdn.com/bphoto/cwnVwlk2AC3s-et1evM3Dw/ms.jpg"}, {"city": "Blacksburg", "review_count": 12, "name": "Carol Lee Donuts", "neighborhoods": [], "url": "http://www.yelp.com/biz/carol-lee-donuts-blacksburg", "type": "business", "business_id": "hIl5mwJaGY1P95pf8cKciA", "full_address": "1414 N Main St\nBlacksburg, VA 24060", "latitude": 37.2472, "state": "VA", "longitude": -80.4139, "stars": 5.0, "schools": ["Virginia Tech"], "open": true, "categories": ["Food", "Bakeries", "Donuts"], "photo_url": "http://s3-media4.ak.yelpcdn.com/bphoto/skGMiiBW-zhkiJB73LhjzA/ms.jpg"}, {"city": "Blacksburg", "review_count": 27, "name": "Lefty's Main Street Grille", "neighborhoods": [], "url": "http://www.yelp.com/biz/leftys-main-street-grille-blacksburg", "type": "business", "business_id": "5zyibT__dkE21sAyLb1qvA", "full_address": "1201 S Main St\nBlacksburg, VA 24060", "latitude": 37.2191357, "state": "VA", "longitude": -80.4025487, "stars": 3.5, "schools": ["Virginia Tech"], "open": true, "categories": ["Bars", "Food", "Breakfast & Brunch", "Desserts", "Nightlife", "Restaurants"], "photo_url": "http://s3-media3.ak.yelpcdn.com/bphoto/GbbrVjupERRHbC954JT4UQ/ms.jpg"}, {"city": "Christiansburg", "review_count": 17, "name": "The Farmhouse", "neighborhoods": [], "url": "http://www.yelp.com/biz/the-farmhouse-christiansburg", "type": "business", "business_id": "lE_jefQ2F9PSjtNmNTSFIA", "full_address": "285 Ridinger St\nChristiansburg, VA 24073", "latitude": 37.1535, "state": "VA", "longitude": -80.4209, "stars": 2.5, "schools": ["Virginia Tech"], "open": true, "categories": ["Steakhouses", "Restaurants"], "photo_url": "http://s3-media1.ak.yelpcdn.com/assets/2/www/img/924a6444ca6c/gfx/blank_biz_medium.gif"}, {"city": "Christiansburg", "review_count": 2, "name": "Walmart", "neighborhoods": [], "url": "http://www.yelp.com/biz/walmart-christiansburg-3", "type": "business", "business_id": "FnExRMsZK6Z7pvps0v7g_g", "full_address": "2705 Market St\nChristiansburg, VA 24073", "latitude": 37.1661, "state": "VA", "longitude": -80.4207, "stars": 4.0, "schools": ["Virginia Tech"], "open": true, "categories": ["Food", "Department Stores", "Grocery", "Fashion", "Shopping"], "photo_url": "http://s3-media1.ak.yelpcdn.com/assets/2/www/img/924a6444ca6c/gfx/blank_biz_medium.gif"}, {"city": "Blacksburg", "review_count": 24, "name": "Kobe Japanese Express", "neighborhoods": [], "url": "http://www.yelp.com/biz/kobe-japanese-express-blacksburg", "type": "business", "business_id": "rXGioez8wVRBwJXJoBj9LQ", "full_address": "860 University City Blvd\nBlacksburg, VA 24060", "latitude": 37.2355, "state": "VA", "longitude": -80.4329, "stars": 4.0, "schools": ["Virginia Tech"], "open": true, "categories": ["Sushi Bars", "Japanese", "Restaurants"], "photo_url": "http://s3-media3.ak.yelpcdn.com/bphoto/L08nOcDOABUmUKREGeQkRQ/ms.jpg"}, {"city": "Blacksburg", "review_count": 12, "name": "Champs Sports Bar & Cafe", "neighborhoods": [], "url": "http://www.yelp.com/biz/champs-sports-bar-and-cafe-blacksburg", "type": "business", "business_id": "3juObN8h-4AZfaxLDhPtQw", "full_address": "111 N Main St\nBlacksburg, VA 24060", "latitude": 37.2294731, "state": "VA", "longitude": -80.4142241, "stars": 3.5, "schools": ["Virginia Tech"], "open": true, "categories": ["Pool Halls", "Nightlife", "Restaurants"], "photo_url": "http://s3-media2.ak.yelpcdn.com/bphoto/v9v2bnk8bMLePIfI3BKxFA/ms.jpg"}, {"city": "Blacksburg", "review_count": 6, "name": "The Greeks' Restaurant and Grill", "neighborhoods": [], "url": "http://www.yelp.com/biz/the-greeks-restaurant-and-grill-blacksburg", "type": "business", "business_id": "kW5Y488LTcIULkX_kG5Vmw", "full_address": "610 N Main St\nBlacksburg, VA 24060", "latitude": 37.233589, "state": "VA", "longitude": -80.418047, "stars": 4.0, "schools": ["Virginia Tech"], "open": true, "categories": ["Greek", "Restaurants"], "photo_url": "http://s3-media1.ak.yelpcdn.com/bphoto/4DJpkZFPDOFsHLi1ouosDw/ms.jpg"}, {"city": "Blacksburg", "review_count": 4, "name": "Heavener Hardware & Lumber", "neighborhoods": [], "url": "http://www.yelp.com/biz/heavener-hardware-and-lumber-blacksburg", "type": "business", "business_id": "lG668gNOx12HEuxXoMaiSg", "full_address": "813 Kabrich St\nBlacksburg, VA 24060", "latitude": 37.2361, "state": "VA", "longitude": -80.4217, "stars": 3.5, "schools": ["Virginia Tech"], "open": true, "categories": ["Hardware Stores", "Building Supplies", "Shopping", "Home Services", "Home & Garden"], "photo_url": "http://s3-media1.ak.yelpcdn.com/bphoto/xzC7-rjSj_hnms7nrozB0w/ms.jpg"}, {"city": "Blacksburg", "review_count": 5, "name": "Blacksburg Health and Fitness at the Weight Club", "neighborhoods": [], "url": "http://www.yelp.com/biz/blacksburg-health-and-fitness-at-the-weight-club-blacksburg", "type": "business", "business_id": "KreSkshbyugxuaWhCleIww", "full_address": "University Mall\n801 University City Blvd\nBlacksburg, VA 24060", "latitude": 37.2337, "state": "VA", "longitude": -80.4342, "stars": 4.5, "schools": ["Virginia Tech"], "open": true, "categories": ["Active Life", "Gyms", "Fitness & Instruction"], "photo_url": "http://s3-media2.ak.yelpcdn.com/bphoto/Y4KyIC0830Cvhu_m8Wu_Ew/ms.jpg"}, {"city": "Blacksburg", "review_count": 2, "name": "Magnifico Photography", "neighborhoods": [], "url": "http://www.yelp.com/biz/magnifico-photography-blacksburg", "type": "business", "business_id": "et0tmr3f3bdZIBfKOwCySQ", "full_address": "Blacksburg, VA 24060", "latitude": 37.2295733, "state": "VA", "longitude": -80.4139393, "stars": 5.0, "schools": ["Virginia Tech"], "open": true, "categories": ["Professional Services"], "photo_url": "http://s3-media1.ak.yelpcdn.com/assets/2/www/img/924a6444ca6c/gfx/blank_biz_medium.gif"}, {"city": "Blacksburg", "review_count": 2, "name": "Terrace View Apts", "neighborhoods": [], "url": "http://www.yelp.com/biz/terrace-view-apts-blacksburg", "type": "business", "business_id": "OZXMJWvjQZJXT_3e18_dEw", "full_address": "413 Hunt Club Rd\nBlacksburg, VA 24060", "latitude": 37.245221, "state": "VA", "longitude": -80.4216761, "stars": 2.5, "schools": ["Virginia Tech"], "open": true, "categories": ["Home Services", "Real Estate", "Apartments"], "photo_url": "http://s3-media2.ak.yelpcdn.com/bphoto/ckPtn1KDFbXdXvDxf-EHvA/ms.jpg"}, {"city": "Blacksburg", "review_count": 16, "name": "Hokkaido Buffet", "neighborhoods": [], "url": "http://www.yelp.com/biz/hokkaido-buffet-blacksburg", "type": "business", "business_id": "3ulgAMrHx6FFvDUMrLInDw", "full_address": "1410 S Main St\nBlacksburg, VA 24060", "latitude": 37.2153614, "state": "VA", "longitude": -80.4008022, "stars": 3.0, "schools": ["Virginia Tech"], "open": true, "categories": ["Buffets", "Chinese", "Restaurants"], "photo_url": "http://s3-media2.ak.yelpcdn.com/bphoto/AEA4LGq-N_F9gCBlT227mQ/ms.jpg"}, {"city": "Blacksburg", "review_count": 3, "name": "Comfort Suites University", "neighborhoods": [], "url": "http://www.yelp.com/biz/comfort-suites-university-blacksburg", "type": "business", "business_id": "7Eh7JsGredERqvI24-IBBg", "full_address": "1020 Plantation Rd\nBlacksburg, VA 24060", "latitude": 37.225758, "state": "VA", "longitude": -80.444373, "stars": 3.0, "schools": ["Virginia Tech"], "open": true, "categories": ["Hotels & Travel", "Event Planning & Services", "Hotels"], "photo_url": "http://s3-media1.ak.yelpcdn.com/bphoto/jOyqHE9n4HG40O009Ado-A/ms.jpg"}, {"city": "Christiansburg", "review_count": 2, "name": "Sears", "neighborhoods": [], "url": "http://www.yelp.com/biz/sears-christiansburg-2", "type": "business", "business_id": "2jApPLSrPh5sN9Ph7srhZA", "full_address": "370 New River Valley Mall\nChristiansburg, VA 24073", "latitude": 37.1676163, "state": "VA", "longitude": -80.427608, "stars": 3.0, "schools": ["Virginia Tech"], "open": true, "categories": ["Department Stores", "Fashion", "Shopping"], "photo_url": "http://s3-media1.ak.yelpcdn.com/bphoto/gOXiBKhcbIpbasNUkFVVag/ms.jpg"}, {"city": "Christiansburg", "review_count": 3, "name": "Microtel Inn & Suites", "neighborhoods": [], "url": "http://www.yelp.com/biz/microtel-inn-and-suites-christiansburg", "type": "business", "business_id": "5s4ajRDWXyP-kGm2E6ZFXw", "full_address": "135 Ponderosa Dr\nChristiansburg, VA 24073", "latitude": 37.1698, "state": "VA", "longitude": -80.4177, "stars": 3.5, "schools": ["Virginia Tech"], "open": true, "categories": ["Hotels & Travel", "Event Planning & Services", "Hotels"], "photo_url": "http://s3-media1.ak.yelpcdn.com/assets/2/www/img/924a6444ca6c/gfx/blank_biz_medium.gif"}, {"city": "Blacksburg", "review_count": 7, "name": "O-Pass Tea & Crepe", "neighborhoods": [], "url": "http://www.yelp.com/biz/o-pass-tea-and-crepe-blacksburg", "type": "business", "business_id": "j3lZQs0YKMDAwKSbDRNY7Q", "full_address": "801 University City Blvd\nSte 9\nBlacksburg, VA 24060", "latitude": 37.2337, "state": "VA", "longitude": -80.4342, "stars": 4.0, "schools": ["Virginia Tech"], "open": true, "categories": ["Food", "Desserts", "Restaurants", "Asian Fusion", "Tea Rooms"], "photo_url": "http://s3-media1.ak.yelpcdn.com/bphoto/oS5Luy8IaLK9FRRcJ9PSiQ/ms.jpg"}, {"city": "Blacksburg", "review_count": 11, "name": "Awful Arthur's Seafood Co", "neighborhoods": [], "url": "http://www.yelp.com/biz/awful-arthurs-seafood-co-blacksburg", "type": "business", "business_id": "__EmsZiRXiUmljbfpOqZig", "full_address": "213 Draper Rd SW\nBlacksburg, VA 24060", "latitude": 37.2283389, "state": "VA", "longitude": -80.4142281, "stars": 2.5, "schools": ["Virginia Tech"], "open": false, "categories": ["Seafood", "Restaurants"], "photo_url": "http://s3-media1.ak.yelpcdn.com/assets/2/www/img/924a6444ca6c/gfx/blank_biz_medium.gif"}, {"city": "Blacksburg", "review_count": 7, "name": "She-Sha", "neighborhoods": [], "url": "http://www.yelp.com/biz/she-sha-blacksburg", "type": "business", "business_id": "5ydvKUok_yX7dBHbpluuRg", "full_address": "211 Draper Rd NW\nBlacksburg, VA 24060", "latitude": 37.2294999, "state": "VA", "longitude": -80.4156201, "stars": 3.5, "schools": ["Virginia Tech"], "open": true, "categories": ["Nightlife", "Bars", "Hookah Bars", "Sandwiches", "Restaurants"], "photo_url": "http://s3-media2.ak.yelpcdn.com/bphoto/kC-rL99aWEZyUIevKw7D-w/ms.jpg"}, {"city": "Christiansburg", "review_count": 2, "name": "Olive Garden Italian Restaurant ", "neighborhoods": [], "url": "http://www.yelp.com/biz/olive-garden-italian-restaurant-christiansburg-2", "type": "business", "business_id": "MUL-dQKFHUNh6y4cGaSNQg", "full_address": "2590 N Franklin St\nChristiansburg, VA 24073", "latitude": 37.1653651, "state": "VA", "longitude": -80.4234036, "stars": 4.5, "schools": ["Virginia Tech"], "open": true, "categories": ["Italian", "Restaurants"], "photo_url": "http://s3-media4.ak.yelpcdn.com/bphoto/MHBPgtYFWW8ZAEfjCheeJA/ms.jpg"}, {"city": "Blacksburg", "review_count": 5, "name": "Joe's Diner", "neighborhoods": [], "url": "http://www.yelp.com/biz/joes-diner-blacksburg", "type": "business", "business_id": "q4a9_hphM1zrmYZDi6lAcg", "full_address": "221 N Main St\nBlacksburg, VA 24060", "latitude": 37.2304002, "state": "VA", "longitude": -80.4150877, "stars": 3.5, "schools": ["Virginia Tech"], "open": true, "categories": ["Breakfast & Brunch", "American (Traditional)", "Diners", "Restaurants"], "photo_url": "http://s3-media1.ak.yelpcdn.com/bphoto/U5Hsn-ZsUeiOvI_h6yRk4g/ms.jpg"}, {"city": "Blacksburg", "review_count": 4, "name": "Chipotle", "neighborhoods": [], "url": "http://www.yelp.com/biz/chipotle-blacksburg", "type": "business", "business_id": "kfynkqRGfOyAw3nnU01u2A", "full_address": "314 N Main St\nBlacksburg, VA 24060", "latitude": 37.231061, "state": "VA", "longitude": -80.4155456, "stars": 3.5, "schools": ["Virginia Tech"], "open": true, "categories": ["Mexican", "Restaurants"], "photo_url": "http://s3-media2.ak.yelpcdn.com/bphoto/O5FFVWLRt_BQm-cvw9lvTw/ms.jpg"}, {"city": "Blacksburg", "review_count": 2, "name": "Elite Style Salon", "neighborhoods": [], "url": "http://www.yelp.com/biz/elite-style-salon-blacksburg", "type": "business", "business_id": "7mfmFcvpl8Xcr3X9ewX4CA", "full_address": "110 Country Club Dr\nBlacksburg, VA 24060", "latitude": 37.2181239, "state": "VA", "longitude": -80.401254, "stars": 4.5, "schools": ["Virginia Tech"], "open": true, "categories": ["Hair Salons", "Day Spas", "Nail Salons", "Beauty and Spas"], "photo_url": "http://s3-media1.ak.yelpcdn.com/assets/2/www/img/924a6444ca6c/gfx/blank_biz_medium.gif"}, {"city": "Blacksburg", "review_count": 2, "name": "Vincents Ristorante", "neighborhoods": [], "url": "http://www.yelp.com/biz/vincents-ristorante-blacksburg", "type": "business", "business_id": "XzsZqaWSTXbyS_kbv7GZSA", "full_address": "1200 S Main St\nBlacksburg, VA 24060", "latitude": 37.219, "state": "VA", "longitude": -80.4032, "stars": 3.5, "schools": ["Virginia Tech"], "open": false, "categories": ["Restaurants"], "photo_url": "http://s3-media1.ak.yelpcdn.com/assets/2/www/img/924a6444ca6c/gfx/blank_biz_medium.gif"}, {"city": "Blacksburg", "review_count": 3, "name": "Hardee's", "neighborhoods": [], "url": "http://www.yelp.com/biz/hardees-blacksburg", "type": "business", "business_id": "J-pY8tSvUc2ekYnnUR-uQQ", "full_address": "904 Prices Fork Rd\nBlacksburg, VA 24060", "latitude": 37.232, "state": "VA", "longitude": -80.4338, "stars": 2.5, "schools": ["Virginia Tech"], "open": true, "categories": ["Fast Food", "Restaurants"], "photo_url": "http://s3-media1.ak.yelpcdn.com/bphoto/EAdJckM9UGZMGPnM-R6UpQ/ms.jpg"}, {"city": "Blacksburg", "review_count": 17, "name": "Sake House", "neighborhoods": [], "url": "http://www.yelp.com/biz/sake-house-blacksburg", "type": "business", "business_id": "tpaVWvFqb08iv4_RgzDkjQ", "full_address": "1560 South Main Street\nSuite 116\nBlacksburg, VA 24060", "latitude": 37.2138186, "state": "VA", "longitude": -80.4004023, "stars": 3.0, "schools": ["Virginia Tech"], "open": true, "categories": ["Sushi Bars", "Restaurants"], "photo_url": "http://s3-media4.ak.yelpcdn.com/bphoto/HtMWRmOXLyso0rsxZOlsDA/ms.jpg"}, {"city": "Christiansburg", "review_count": 2, "name": "Modern Automotive", "neighborhoods": [], "url": "http://www.yelp.com/biz/modern-automotive-christiansburg", "type": "business", "business_id": "7Igs18IjDKBxou07t4NeHw", "full_address": "406 Cambria St NW\nChristiansburg, VA 24073", "latitude": 37.153182, "state": "VA", "longitude": -80.4231766, "stars": 4.5, "schools": ["Virginia Tech"], "open": true, "categories": ["Tires", "Automotive", "Auto Repair"], "photo_url": "http://s3-media1.ak.yelpcdn.com/assets/2/www/img/924a6444ca6c/gfx/blank_biz_medium.gif"}, {"city": "Blacksburg", "review_count": 2, "name": "Blacksburg Pipe & Tobacco", "neighborhoods": [], "url": "http://www.yelp.com/biz/blacksburg-pipe-and-tobacco-blacksburg", "type": "business", "business_id": "lWTR8IrGQSPcHGo1_CHObA", "full_address": "408 N Main St\nBlacksburg, VA 24060", "latitude": 37.2315097, "state": "VA", "longitude": -80.4159486, "stars": 4.0, "schools": ["Virginia Tech"], "open": true, "categories": ["Tobacco Shops", "Shopping"], "photo_url": "http://s3-media1.ak.yelpcdn.com/bphoto/3xlcsCEDvUzPVJoDDfW9bw/ms.jpg"}, {"city": "Blacksburg", "review_count": 2, "name": "South Main Chiropractic", "neighborhoods": [], "url": "http://www.yelp.com/biz/south-main-chiropractic-blacksburg", "type": "business", "business_id": "6MJ2tngko89gaxOIqVBaRQ", "full_address": "401 S Main St\nSte 104\nBlacksburg, VA 24060", "latitude": 37.2272452, "state": "VA", "longitude": -80.4117236, "stars": 4.5, "schools": ["Virginia Tech"], "open": true, "categories": ["Health and Medical", "Chiropractors"], "photo_url": "http://s3-media2.ak.yelpcdn.com/bphoto/oabuJ657wgAA4dmck_yD0w/ms.jpg"}, {"city": "Blacksburg", "review_count": 3, "name": "Heartstrings Pet Lodging", "neighborhoods": [], "url": "http://www.yelp.com/biz/heartstrings-pet-lodging-blacksburg", "type": "business", "business_id": "nQ5WU6CfXb_0KE31M0Rd-Q", "full_address": "809 Patrick Henry Dr\nBlacksburg, VA 24060", "latitude": 37.2453999, "state": "VA", "longitude": -80.4136, "stars": 5.0, "schools": ["Virginia Tech"], "open": true, "categories": ["Pet Groomers", "Pet Services", "Pet Boarding/Pet Sitting", "Pets"], "photo_url": "http://s3-media1.ak.yelpcdn.com/bphoto/_Ss4d4dYzehTmWJGpkqL7w/ms.jpg"}, {"city": "Blacksburg", "review_count": 3, "name": "Cox's Golf Driving Range Putt-A-Round & Battng Cgs", "neighborhoods": [], "url": "http://www.yelp.com/biz/coxs-golf-driving-range-putt-a-round-and-battng-cgs-blacksburg", "type": "business", "business_id": "rAGel9eqVU2XFtRiegHX_A", "full_address": "3500 Prices Fork Rd\nBlacksburg, VA 24060", "latitude": 37.2165, "state": "VA", "longitude": -80.4688, "stars": 3.0, "schools": ["Virginia Tech"], "open": true, "categories": ["Active Life", "Golf"], "photo_url": "http://s3-media1.ak.yelpcdn.com/assets/2/www/img/924a6444ca6c/gfx/blank_biz_medium.gif"}, {"city": "Blacksburg", "review_count": 5, "name": "Clay Corner Inn", "neighborhoods": [], "url": "http://www.yelp.com/biz/clay-corner-inn-blacksburg", "type": "business", "business_id": "w8Oc-X_JRGZjZsfRd_Qxsg", "full_address": "401 Clay St SW\nBlacksburg, VA 24060", "latitude": 37.2253262, "state": "VA", "longitude": -80.4145863, "stars": 4.0, "schools": ["Virginia Tech"], "open": true, "categories": ["Hotels & Travel", "Bed & Breakfast", "Event Planning & Services", "Hotels"], "photo_url": "http://s3-media4.ak.yelpcdn.com/bphoto/mdopIlrdVTE9vA4PgT7qmA/ms.jpg"}, {"city": "Blacksburg", "review_count": 2, "name": "Campus Exxon Servicenter", "neighborhoods": [], "url": "http://www.yelp.com/biz/campus-exxon-servicenter-blacksburg", "type": "business", "business_id": "_DdrjFmOox7E_eMIe-5_Jg", "full_address": "600 N Main St\nBlacksburg, VA 24060", "latitude": 37.233237, "state": "VA", "longitude": -80.4177885, "stars": 1.5, "schools": ["Virginia Tech"], "open": true, "categories": ["Automotive", "Towing"], "photo_url": "http://s3-media1.ak.yelpcdn.com/assets/2/www/img/924a6444ca6c/gfx/blank_biz_medium.gif"}, {"city": "Blacksburg", "review_count": 3, "name": "Great Clips", "neighborhoods": [], "url": "http://www.yelp.com/biz/great-clips-blacksburg", "type": "business", "business_id": "X3vBMdshEwWxtJLlVpSVVg", "full_address": "1334 South Main St.\nBlacksburg, VA 24060", "latitude": 37.2163292, "state": "VA", "longitude": -80.4010888, "stars": 1.5, "schools": ["Virginia Tech"], "open": true, "categories": ["Hair Salons", "Beauty and Spas"], "photo_url": "http://s3-media1.ak.yelpcdn.com/assets/2/www/img/924a6444ca6c/gfx/blank_biz_medium.gif"}, {"city": "Blacksburg", "review_count": 14, "name": "Our Daily Bread Cafe and Bakery", "neighborhoods": [], "url": "http://www.yelp.com/biz/our-daily-bread-cafe-and-bakery-blacksburg", "type": "business", "business_id": "I5dFvzPt57bb9T7z0Mp-jw", "full_address": "1317 S Main St\nBlacksburg, VA 24060", "latitude": 37.2168417, "state": "VA", "longitude": -80.4010809, "stars": 4.0, "schools": ["Virginia Tech"], "open": true, "categories": ["Food", "Bakeries", "Restaurants"], "photo_url": "http://s3-media1.ak.yelpcdn.com/bphoto/YMli7d2oejmfPqQnQ7m7Lw/ms.jpg"}, {"city": "Blacksburg", "review_count": 3, "name": "D'rose", "neighborhoods": [], "url": "http://www.yelp.com/biz/d-rose-blacksburg", "type": "business", "business_id": "FvaoSQEZdUJXi3A7gno1Xg", "full_address": "801 N Main St\nBlacksburg, VA 24060", "latitude": 37.2363315, "state": "VA", "longitude": -80.4213269, "stars": 4.5, "schools": ["Virginia Tech"], "open": true, "categories": ["Arts & Crafts", "Flowers & Gifts", "Shopping", "Costumes", "Florists"], "photo_url": "http://s3-media1.ak.yelpcdn.com/assets/2/www/img/924a6444ca6c/gfx/blank_biz_medium.gif"}, {"city": "Blacksburg", "review_count": 36, "name": "The Rivermill", "neighborhoods": [], "url": "http://www.yelp.com/biz/the-rivermill-blacksburg", "type": "business", "business_id": "nCWZR9NRc2grAwP1jq33PA", "full_address": "212 Draper Rd\nBlacksburg, VA 24060", "latitude": 37.2279932, "state": "VA", "longitude": -80.4138987, "stars": 4.0, "schools": ["Virginia Tech"], "open": true, "categories": ["Bars", "American (Traditional)", "Nightlife", "Restaurants"], "photo_url": "http://s3-media3.ak.yelpcdn.com/bphoto/hmNEr7QQxrZqVU76qQaz4A/ms.jpg"}, {"city": "Blacksburg", "review_count": 2, "name": "Lia's Hair Styling", "neighborhoods": [], "url": "http://www.yelp.com/biz/lias-hair-styling-blacksburg", "type": "business", "business_id": "3UbkuKOjZ8YrWdAZx94-ww", "full_address": "107 N Main St\nBlacksburg, VA 24060", "latitude": 37.2297388, "state": "VA", "longitude": -80.4143865, "stars": 4.0, "schools": ["Virginia Tech"], "open": true, "categories": ["Hair Salons", "Beauty and Spas"], "photo_url": "http://s3-media1.ak.yelpcdn.com/assets/2/www/img/924a6444ca6c/gfx/blank_biz_medium.gif"}, {"city": "Blacksburg", "review_count": 2, "name": "Homebody", "neighborhoods": [], "url": "http://www.yelp.com/biz/homebody-blacksburg", "type": "business", "business_id": "bD0ut8OU6kXmy580M8ex9w", "full_address": "119 N Main St\nSte 101\nBlacksburg, VA 24060", "latitude": 37.2296533, "state": "VA", "longitude": -80.4142974, "stars": 4.5, "schools": ["Virginia Tech"], "open": true, "categories": ["Shopping"], "photo_url": "http://s3-media1.ak.yelpcdn.com/assets/2/www/img/924a6444ca6c/gfx/blank_biz_medium.gif"}, {"city": "Christiansburg", "review_count": 4, "name": "Blackstone Grill", "neighborhoods": [], "url": "http://www.yelp.com/biz/blackstone-grill-christiansburg", "type": "business", "business_id": "zgjMObNE3iH01oEZw76Q7Q", "full_address": "420 Peppers Ferry Rd NW\nChristiansburg, VA 24073", "latitude": 37.1618, "state": "VA", "longitude": -80.4327, "stars": 4.0, "schools": ["Virginia Tech"], "open": true, "categories": ["Food", "Beer, Wine & Spirits", "Restaurants"], "photo_url": "http://s3-media2.ak.yelpcdn.com/bphoto/DwOSwD-dtznI5nIUYa5QQQ/ms.jpg"}, {"city": "Christiansburg", "review_count": 10, "name": "Sakura Japenese Steakhouse", "neighborhoods": [], "url": "http://www.yelp.com/biz/sakura-japenese-steakhouse-christiansburg", "type": "business", "business_id": "sCsytJYwfESzzIHZnwxb2Q", "full_address": "105 Laurel St\nChristiansburg, VA 24073", "latitude": 37.1626, "state": "VA", "longitude": -80.4214, "stars": 3.0, "schools": ["Virginia Tech"], "open": true, "categories": ["Steakhouses", "Japanese", "Restaurants"], "photo_url": "http://s3-media1.ak.yelpcdn.com/bphoto/StzfG57cliuRs5YIxO5aAg/ms.jpg"}, {"city": "Blacksburg", "review_count": 8, "name": "Next Door Bake Shop", "neighborhoods": [], "url": "http://www.yelp.com/biz/next-door-bake-shop-blacksburg", "type": "business", "business_id": "qZVNTc39d7mLqWeSFTOHIg", "full_address": "460 Turner St NW\nSte 204\nBlacksburg, VA 24060", "latitude": 37.2332966, "state": "VA", "longitude": -80.4228094, "stars": 4.0, "schools": ["Virginia Tech"], "open": true, "categories": ["Food", "Bakeries", "Coffee & Tea"], "photo_url": "http://s3-media4.ak.yelpcdn.com/bphoto/FmEAf_g955An0aPUgeQQGA/ms.jpg"}, {"city": "Blacksburg", "review_count": 19, "name": "Chinese Kitchen", "neighborhoods": [], "url": "http://www.yelp.com/biz/chinese-kitchen-blacksburg", "type": "business", "business_id": "thlQuACT7g1GQLA-45pfkw", "full_address": "1409 N Main St\nBlacksburg, VA 24060", "latitude": 37.247616, "state": "VA", "longitude": -80.41518, "stars": 4.0, "schools": ["Virginia Tech"], "open": true, "categories": ["Chinese", "Restaurants"], "photo_url": "http://s3-media3.ak.yelpcdn.com/bphoto/pqb3E50wS7HtUebIxzuEAg/ms.jpg"}, {"city": "Blacksburg", "review_count": 16, "name": "PK's Bar & Grill", "neighborhoods": [], "url": "http://www.yelp.com/biz/pks-bar-and-grill-blacksburg", "type": "business", "business_id": "zkmYfnGF3WilPsGiIkxYYw", "full_address": "432 N Main St\nBlacksburg, VA 24060", "latitude": 37.2322135, "state": "VA", "longitude": -80.4164606, "stars": 3.0, "schools": ["Virginia Tech"], "open": true, "categories": ["American (Traditional)", "Pizza", "Restaurants"], "photo_url": "http://s3-media3.ak.yelpcdn.com/bphoto/BR69Rr7Ep-suhs3HOnQAdA/ms.jpg"}, {"city": "Blacksburg", "review_count": 28, "name": "Boudreaux's Restaurant", "neighborhoods": [], "url": "http://www.yelp.com/biz/boudreauxs-restaurant-blacksburg", "type": "business", "business_id": "Te72-fjbquQFCfPBgJ4ldQ", "full_address": "205 N Main St\nBlacksburg, VA 24060", "latitude": 37.2300939, "state": "VA", "longitude": -80.4147662, "stars": 3.0, "schools": ["Virginia Tech"], "open": true, "categories": ["Cajun/Creole", "American (New)", "Restaurants"], "photo_url": "http://s3-media2.ak.yelpcdn.com/bphoto/WnxLFqeOeBACOmAW9aYfZg/ms.jpg"}]